{
"type": "FeatureCollection",
"name": "Medical_Facilities_including_Hospitals___medical_facilities_point",
"crs": { "type": "name", "properties": { "name": "urn:ogc:def:crs:OGC:1.3:CRS84" } },
"features": [
{ "type": "Feature", "properties": { "OBJECTID": 1, "FEATURE_ID": 1122, "ESITE": "482452", "CODE": 330, "NAME": "Navos West Seattle Campus", "ABB_NAME": "Navos Behavioral Health", "ADDRESS": "2600 SW Holden St", "ZIPCODE": "98106", "WEBSITE": null, "PIN": null, "MAJOR": null, "MINOR": null }, "geometry": { "type": "Point", "coordinates": [ -122.366235561428809, 47.534194795647466 ] } },
{ "type": "Feature", "properties": { "OBJECTID": 2, "FEATURE_ID": 1623, "ESITE": "478724", "CODE": 330, "NAME": "Kaiser Permanente - Rainier", "ABB_NAME": "Kaiser Permanente", "ADDRESS": "5316 Rainier Ave S", "ZIPCODE": "98118", "WEBSITE": null, "PIN": null, "MAJOR": null, "MINOR": null }, "geometry": { "type": "Point", "coordinates": [ -122.279653951019824, 47.55422908624125 ] } },
{ "type": "Feature", "properties": { "OBJECTID": 3, "FEATURE_ID": 2330, "ESITE": "991032", "CODE": 330, "NAME": "Swedish Hospital - Issaquah Campus", "ABB_NAME": "Swedish Hospital", "ADDRESS": "751 NE Blakely Dr", "ZIPCODE": "98029", "WEBSITE": null, "PIN": null, "MAJOR": null, "MINOR": null }, "geometry": { "type": "Point", "coordinates": [ -122.021933656382345, 47.536103750178057 ] } },
{ "type": "Feature", "properties": { "OBJECTID": 4, "FEATURE_ID": 2309, "ESITE": "00000", "CODE": 330, "NAME": "Indigo Urgent Care - Kirkland", "ABB_NAME": "Indigo Urgent Care", "ADDRESS": "12423 Totem Lake Blvd NE", "ZIPCODE": "98034", "WEBSITE": null, "PIN": null, "MAJOR": null, "MINOR": null }, "geometry": { "type": "Point", "coordinates": [ -122.179197979218884, 47.709925604460921 ] } },
{ "type": "Feature", "properties": { "OBJECTID": 5, "FEATURE_ID": 1248, "ESITE": "611050", "CODE": 330, "NAME": "St. Anne Hospital", "ABB_NAME": "St. Anne Hospital", "ADDRESS": "16251 Sylvester Rd  SW", "ZIPCODE": "98166", "WEBSITE": "https://www.vmfh.org/our-hospitals/st-anne-hospital", "PIN": "3023049027", "MAJOR": "302304", "MINOR": "9027" }, "geometry": { "type": "Point", "coordinates": [ -122.343114000088363, 47.457473900731472 ] } },
{ "type": "Feature", "properties": { "OBJECTID": 6, "FEATURE_ID": 2688, "ESITE": "00000", "CODE": 330, "NAME": "Indigo Urgent Care - Sammamish", "ABB_NAME": "Indigo Urgent Care", "ADDRESS": "530 228th Ave NE", "ZIPCODE": "98074", "WEBSITE": null, "PIN": null, "MAJOR": null, "MINOR": null }, "geometry": { "type": "Point", "coordinates": [ -122.033721681952116, 47.614645682129407 ] } },
{ "type": "Feature", "properties": { "OBJECTID": 7, "FEATURE_ID": 1624, "ESITE": "982335", "CODE": 330, "NAME": "Kaiser Permanente - Redmond", "ABB_NAME": "Kaiser Permanente", "ADDRESS": "15809 Bear Creek Pkwy", "ZIPCODE": "98052", "WEBSITE": null, "PIN": null, "MAJOR": null, "MINOR": null }, "geometry": { "type": "Point", "coordinates": [ -122.129273555658287, 47.673322651411979 ] } },
{ "type": "Feature", "properties": { "OBJECTID": 8, "FEATURE_ID": 821, "ESITE": "433317", "CODE": 330, "NAME": "Virginia Mason Hospital", "ABB_NAME": "Virginia Mason Hospital", "ADDRESS": "925 Seneca St", "ZIPCODE": "98101", "WEBSITE": null, "PIN": null, "MAJOR": null, "MINOR": null }, "geometry": { "type": "Point", "coordinates": [ -122.327737836234476, 47.609860321371897 ] } },
{ "type": "Feature", "properties": { "OBJECTID": 9, "FEATURE_ID": 3300044, "ESITE": "983761", "CODE": 330, "NAME": "St. Elizabeth Hospital", "ABB_NAME": "St. Elizabeth Hospital", "ADDRESS": "1455 Battersby Ave", "ZIPCODE": "98022", "WEBSITE": "https://www.vmfh.org/our-hospitals/st-elizabeth-hospital", "PIN": "2420069029", "MAJOR": "242006", "MINOR": "9029" }, "geometry": { "type": "Point", "coordinates": [ -121.987759758360099, 47.209180054893906 ] } },
{ "type": "Feature", "properties": { "OBJECTID": 10, "FEATURE_ID": 22, "ESITE": "717584", "CODE": 330, "NAME": "MultiCare Medical Center - Auburn ", "ABB_NAME": "MultiCare", "ADDRESS": "202 N Division St", "ZIPCODE": "98002", "WEBSITE": "https://www.multicare.org/location/auburn-medical-center/", "PIN": "0492500240", "MAJOR": "049250", "MINOR": "0240" }, "geometry": { "type": "Point", "coordinates": [ -122.229269102499316, 47.308528745251948 ] } },
{ "type": "Feature", "properties": { "OBJECTID": 11, "FEATURE_ID": 1735, "ESITE": "451165", "CODE": 330, "NAME": "Northwest Kidney Centers - Broadway", "ABB_NAME": "Northwest Kidney Centers", "ADDRESS": "700 Broadway", "ZIPCODE": "98122", "WEBSITE": null, "PIN": null, "MAJOR": null, "MINOR": null }, "geometry": { "type": "Point", "coordinates": [ -122.320313329813274, 47.608249070899696 ] } },
{ "type": "Feature", "properties": { "OBJECTID": 12, "FEATURE_ID": 2678, "ESITE": "119204", "CODE": 330, "NAME": "UW Medicine Eastide Speciality Center", "ABB_NAME": "UW Eastide Speciality", "ADDRESS": "3100 Northup Way", "ZIPCODE": "98004", "WEBSITE": null, "PIN": null, "MAJOR": null, "MINOR": null }, "geometry": { "type": "Point", "coordinates": [ -122.191243766301582, 47.638073549698369 ] } },
{ "type": "Feature", "properties": { "OBJECTID": 13, "FEATURE_ID": 2666, "ESITE": "532763", "CODE": 330, "NAME": "Swedish Primary Care - Pine Lake", "ABB_NAME": "Swedish Primary Care", "ADDRESS": "22707 SE 29th St", "ZIPCODE": "98075", "WEBSITE": null, "PIN": null, "MAJOR": null, "MINOR": null }, "geometry": { "type": "Point", "coordinates": [ -122.036660407212281, 47.583237591765155 ] } },
{ "type": "Feature", "properties": { "OBJECTID": 14, "FEATURE_ID": 10000046, "ESITE": "1001073", "CODE": 330, "NAME": "Genoa Healthcare", "ABB_NAME": "Genoa Healthcare", "ADDRESS": "325 W Gowe St", "ZIPCODE": "98032", "WEBSITE": null, "PIN": null, "MAJOR": null, "MINOR": null }, "geometry": { "type": "Point", "coordinates": [ -122.235758780932329, 47.381052673663945 ] } },
{ "type": "Feature", "properties": { "OBJECTID": 15, "FEATURE_ID": 860, "ESITE": "438405", "CODE": 330, "NAME": "Harborview Medical Center", "ABB_NAME": "Harborview Medical Center", "ADDRESS": "325 9th Ave", "ZIPCODE": "98104", "WEBSITE": "https://www.uwmedicine.org/locations/harborview-medical-center", "PIN": "8590400545", "MAJOR": "859040", "MINOR": "0545" }, "geometry": { "type": "Point", "coordinates": [ -122.323661241554163, 47.603920649070204 ] } },
{ "type": "Feature", "properties": { "OBJECTID": 16, "FEATURE_ID": 2202, "ESITE": "434812", "CODE": 330, "NAME": "Fred Hutch Cancer Center - South Lake Union", "ABB_NAME": "Fred Hutch", "ADDRESS": "1354 Aloha St", "ZIPCODE": "98109", "WEBSITE": null, "PIN": null, "MAJOR": null, "MINOR": null }, "geometry": { "type": "Point", "coordinates": [ -122.32967027875813, 47.626672147115251 ] } },
{ "type": "Feature", "properties": { "OBJECTID": 17, "FEATURE_ID": 2661, "ESITE": "772145", "CODE": 330, "NAME": "Swedish Family Medicine - Ballard", "ABB_NAME": "Swedish Family Medicine", "ADDRESS": "1801 NW Market St", "ZIPCODE": "98107", "WEBSITE": null, "PIN": null, "MAJOR": null, "MINOR": null }, "geometry": { "type": "Point", "coordinates": [ -122.380189136285452, 47.668171447198745 ] } },
{ "type": "Feature", "properties": { "OBJECTID": 18, "FEATURE_ID": 2654, "ESITE": "320400", "CODE": 330, "NAME": "Polyclinic - Ballard", "ABB_NAME": "Polyclinic", "ADDRESS": "1448 NW Market St", "ZIPCODE": "98107", "WEBSITE": null, "PIN": null, "MAJOR": null, "MINOR": null }, "geometry": { "type": "Point", "coordinates": [ -122.375446561497668, 47.668930627759735 ] } },
{ "type": "Feature", "properties": { "OBJECTID": 19, "FEATURE_ID": 1645, "ESITE": "0000", "CODE": 330, "NAME": "Kaiser Permanente - South Lake Union", "ABB_NAME": "Kaiser Permanente", "ADDRESS": "210 9th Ave N", "ZIPCODE": "98109", "WEBSITE": null, "PIN": null, "MAJOR": null, "MINOR": null }, "geometry": { "type": "Point", "coordinates": [ -122.339552665770483, 47.620021974639094 ] } },
{ "type": "Feature", "properties": { "OBJECTID": 20, "FEATURE_ID": 2655, "ESITE": "442834", "CODE": 330, "NAME": "Polyclinic - Nordstrom Tower", "ABB_NAME": "Polyclinic", "ADDRESS": "1229 Madison St", "ZIPCODE": "98104", "WEBSITE": null, "PIN": null, "MAJOR": null, "MINOR": null }, "geometry": { "type": "Point", "coordinates": [ -122.321857643784199, 47.610121875743253 ] } },
{ "type": "Feature", "properties": { "OBJECTID": 21, "FEATURE_ID": 2673, "ESITE": "868245", "CODE": 330, "NAME": "UW Medicine - Federal Way", "ABB_NAME": "UW Medicine", "ADDRESS": "32018 23rd Ave S", "ZIPCODE": "98003", "WEBSITE": null, "PIN": null, "MAJOR": null, "MINOR": null }, "geometry": { "type": "Point", "coordinates": [ -122.303049055525278, 47.314501514402409 ] } },
{ "type": "Feature", "properties": { "OBJECTID": 22, "FEATURE_ID": 2686, "ESITE": "975421", "CODE": 330, "NAME": "Valley Medical Center - Lake Sawyer Clinic", "ABB_NAME": "Valley Medical Center", "ADDRESS": "27203 216th Ave SE", "ZIPCODE": "98038", "WEBSITE": null, "PIN": null, "MAJOR": null, "MINOR": null }, "geometry": { "type": "Point", "coordinates": [ -122.054819297443984, 47.357372636250034 ] } },
{ "type": "Feature", "properties": { "OBJECTID": 23, "FEATURE_ID": 3300065, "ESITE": "00000", "CODE": 330, "NAME": "Indigo Urgent Care - Redmond", "ABB_NAME": "Indigo Urgent Care", "ADDRESS": "15946 Redmond Way", "ZIPCODE": "98052", "WEBSITE": null, "PIN": null, "MAJOR": null, "MINOR": null }, "geometry": { "type": "Point", "coordinates": [ -122.128018881625394, 47.674992106999134 ] } },
{ "type": "Feature", "properties": { "OBJECTID": 24, "FEATURE_ID": 2653, "ESITE": "925162", "CODE": 330, "NAME": "Pacific Medical Diagnostic & Wellness Center for Women", "ABB_NAME": "PacMed Diagnostic Center", "ADDRESS": "1200 12th Ave S", "ZIPCODE": "98144", "WEBSITE": null, "PIN": null, "MAJOR": null, "MINOR": null }, "geometry": { "type": "Point", "coordinates": [ -122.315987038093084, 47.592801117705889 ] } },
{ "type": "Feature", "properties": { "OBJECTID": 25, "FEATURE_ID": 10000047, "ESITE": "112362", "CODE": 330, "NAME": "Bel-Red Medical Dental", "ABB_NAME": "Bel-Red Medical Dental", "ADDRESS": "13033 Bel-Red Rd", "ZIPCODE": "98005", "WEBSITE": null, "PIN": null, "MAJOR": null, "MINOR": null }, "geometry": { "type": "Point", "coordinates": [ -122.166604855527339, 47.621216064649431 ] } },
{ "type": "Feature", "properties": { "OBJECTID": 26, "FEATURE_ID": 2650, "ESITE": "437413", "CODE": 330, "NAME": "Pacific Medical Center - First Hill", "ABB_NAME": "PacMed Center", "ADDRESS": "1101 Madison St", "ZIPCODE": "98104", "WEBSITE": null, "PIN": null, "MAJOR": null, "MINOR": null }, "geometry": { "type": "Point", "coordinates": [ -122.324323125957463, 47.609227065054206 ] } },
{ "type": "Feature", "properties": { "OBJECTID": 27, "FEATURE_ID": 2181, "ESITE": "194368", "CODE": 330, "NAME": "Snoqualmie Valley Hospital", "ABB_NAME": "Snoqualmie Valley Hospital", "ADDRESS": "9801 Frontier Ave SE", "ZIPCODE": "98065", "WEBSITE": "https://snoqualmiehospital.org/", "PIN": "0623089021", "MAJOR": "062308", "MINOR": "9021" }, "geometry": { "type": "Point", "coordinates": [ -121.885709347703511, 47.512751463795524 ] } },
{ "type": "Feature", "properties": { "OBJECTID": 28, "FEATURE_ID": 3300022, "ESITE": "435003", "CODE": 330, "NAME": "Swedish Hospital - Cherry Hill Campus ", "ABB_NAME": "Swedish Hospital", "ADDRESS": "500 17th Ave", "ZIPCODE": "98122", "WEBSITE": null, "PIN": null, "MAJOR": null, "MINOR": null }, "geometry": { "type": "Point", "coordinates": [ -122.310178650891899, 47.607150106972909 ] } },
{ "type": "Feature", "properties": { "OBJECTID": 29, "FEATURE_ID": 1076, "ESITE": "435003", "CODE": 330, "NAME": "Providence Health & Services", "ABB_NAME": "Providence Hospital", "ADDRESS": "1801 Lind Ave SW", "ZIPCODE": "98057", "WEBSITE": null, "PIN": null, "MAJOR": null, "MINOR": null }, "geometry": { "type": "Point", "coordinates": [ -122.22549316315515, 47.463774764627914 ] } },
{ "type": "Feature", "properties": { "OBJECTID": 30, "FEATURE_ID": 1617, "ESITE": "101588", "CODE": 330, "NAME": "Kaiser Permanente - Factoria", "ABB_NAME": "Kaiser Permanente", "ADDRESS": "13451 SE 36th St", "ZIPCODE": "98006", "WEBSITE": null, "PIN": null, "MAJOR": null, "MINOR": null }, "geometry": { "type": "Point", "coordinates": [ -122.160769925063207, 47.579003722433733 ] } },
{ "type": "Feature", "properties": { "OBJECTID": 31, "FEATURE_ID": 1505, "ESITE": "260184", "CODE": 330, "NAME": "Bloodworks Northwest - Renton", "ABB_NAME": "Bloodworks NW", "ADDRESS": "660 SW 39th St", "ZIPCODE": "98057", "WEBSITE": null, "PIN": null, "MAJOR": null, "MINOR": null }, "geometry": { "type": "Point", "coordinates": [ -122.226222663129718, 47.446335001774813 ] } },
{ "type": "Feature", "properties": { "OBJECTID": 32, "FEATURE_ID": 896, "ESITE": "328287", "CODE": 330, "NAME": "Swedish Hospital - Ballard Campus", "ABB_NAME": "Swedish Hospital", "ADDRESS": "5300 Tallman Ave NW", "ZIPCODE": "98107", "WEBSITE": null, "PIN": null, "MAJOR": null, "MINOR": null }, "geometry": { "type": "Point", "coordinates": [ -122.379611888325528, 47.667426651181266 ] } },
{ "type": "Feature", "properties": { "OBJECTID": 33, "FEATURE_ID": 10000041, "ESITE": "687011", "CODE": 330, "NAME": "Valley Cities Behavioral Health Care - Auburn", "ABB_NAME": "Valley Cities Behavioral Health Care", "ADDRESS": "2704 I St NE", "ZIPCODE": "98002", "WEBSITE": null, "PIN": null, "MAJOR": null, "MINOR": null }, "geometry": { "type": "Point", "coordinates": [ -122.218770737535664, 47.330993405878111 ] } },
{ "type": "Feature", "properties": { "OBJECTID": 34, "FEATURE_ID": 2649, "ESITE": "714727", "CODE": 330, "NAME": "Pacific Medical Center - Federal Way", "ABB_NAME": "PacMed Center", "ADDRESS": "31833 Gateway Center Blvd S", "ZIPCODE": "98003", "WEBSITE": null, "PIN": null, "MAJOR": null, "MINOR": null }, "geometry": { "type": "Point", "coordinates": [ -122.29996835765948, 47.316921380252374 ] } },
{ "type": "Feature", "properties": { "OBJECTID": 35, "FEATURE_ID": 10001609, "ESITE": "00000", "CODE": 330, "NAME": "Indigo Urgent Care - Federal Way", "ABB_NAME": "Indigo Urgent Care", "ADDRESS": "31861 Gateway Center Blvd S", "ZIPCODE": "98003", "WEBSITE": null, "PIN": null, "MAJOR": null, "MINOR": null }, "geometry": { "type": "Point", "coordinates": [ -122.300616995173726, 47.316342579277894 ] } },
{ "type": "Feature", "properties": { "OBJECTID": 36, "FEATURE_ID": 923, "ESITE": "766335", "CODE": 330, "NAME": "VA Puget Sound Health Care System - Seattle Division", "ABB_NAME": "VA PS Health Care", "ADDRESS": "1660 S Columbian Way", "ZIPCODE": "98108", "WEBSITE": null, "PIN": null, "MAJOR": null, "MINOR": null }, "geometry": { "type": "Point", "coordinates": [ -122.308035621680929, 47.563627208192308 ] } },
{ "type": "Feature", "properties": { "OBJECTID": 37, "FEATURE_ID": 10001608, "ESITE": "00000", "CODE": 330, "NAME": "Indigo Urgent Care - Maple Valley", "ABB_NAME": "Indigo Urgent Care", "ADDRESS": "26380 238th Ln SE", "ZIPCODE": "98038", "WEBSITE": null, "PIN": null, "MAJOR": null, "MINOR": null }, "geometry": { "type": "Point", "coordinates": [ -122.022427573695211, 47.365434196946964 ] } },
{ "type": "Feature", "properties": { "OBJECTID": 38, "FEATURE_ID": 10001600, "ESITE": "00000", "CODE": 330, "NAME": "Indigo Urgent Care - Issaquah", "ABB_NAME": "Indigo Urgent Care", "ADDRESS": "6140 E Lake Sammamish Pkwy SE", "ZIPCODE": "98029", "WEBSITE": null, "PIN": null, "MAJOR": null, "MINOR": null }, "geometry": { "type": "Point", "coordinates": [ -122.040762605566798, 47.547995021431454 ] } },
{ "type": "Feature", "properties": { "OBJECTID": 39, "FEATURE_ID": 3300043, "ESITE": "328287", "CODE": 330, "NAME": "Swedish Family Medicine - First Hill", "ABB_NAME": "Swedish Family Medicine", "ADDRESS": "1401 Madison St", "ZIPCODE": "98104", "WEBSITE": null, "PIN": null, "MAJOR": null, "MINOR": null }, "geometry": { "type": "Point", "coordinates": [ -122.321507672408799, 47.610695917037162 ] } },
{ "type": "Feature", "properties": { "OBJECTID": 40, "FEATURE_ID": 10001602, "ESITE": "00000", "CODE": 330, "NAME": "Indigo Urgent Care - Rainier", "ABB_NAME": "Indigo Urgent Care", "ADDRESS": "3820 Rainier Ave S ", "ZIPCODE": "98118", "WEBSITE": null, "PIN": null, "MAJOR": null, "MINOR": null }, "geometry": { "type": "Point", "coordinates": [ -122.289828048780635, 47.569216765356373 ] } },
{ "type": "Feature", "properties": { "OBJECTID": 41, "FEATURE_ID": 2647, "ESITE": "453243", "CODE": 330, "NAME": "Kaiser Permanente - Central Hospital", "ABB_NAME": "Kaiser Permanente", "ADDRESS": "201 16th Ave E", "ZIPCODE": "98112", "WEBSITE": null, "PIN": null, "MAJOR": null, "MINOR": null }, "geometry": { "type": "Point", "coordinates": [ -122.312039982305635, 47.619901405759776 ] } },
{ "type": "Feature", "properties": { "OBJECTID": 42, "FEATURE_ID": 1753, "ESITE": "254493", "CODE": 330, "NAME": "Pacific Medical Center - Northgate", "ABB_NAME": "PacMed Center", "ADDRESS": "10416 5th Ave NE", "ZIPCODE": "98125", "WEBSITE": null, "PIN": null, "MAJOR": null, "MINOR": null }, "geometry": { "type": "Point", "coordinates": [ -122.322702386395505, 47.704418086209969 ] } },
{ "type": "Feature", "properties": { "OBJECTID": 43, "FEATURE_ID": 10001607, "ESITE": "00000", "CODE": 330, "NAME": "Indigo Urgent Care - Covington", "ABB_NAME": "Indigo Urgent Care", "ADDRESS": "27111 167th Pl SE", "ZIPCODE": "98042", "WEBSITE": null, "PIN": null, "MAJOR": null, "MINOR": null }, "geometry": { "type": "Point", "coordinates": [ -122.118908590933358, 47.358603863740598 ] } },
{ "type": "Feature", "properties": { "OBJECTID": 44, "FEATURE_ID": 10001601, "ESITE": "00000", "CODE": 330, "NAME": "Indigo Urgent Care - Bellevue", "ABB_NAME": "Indigo Urgent Care", "ADDRESS": "15600 NE 8th St", "ZIPCODE": "98008", "WEBSITE": null, "PIN": null, "MAJOR": null, "MINOR": null }, "geometry": { "type": "Point", "coordinates": [ -122.131816648799841, 47.617398180181553 ] } },
{ "type": "Feature", "properties": { "OBJECTID": 45, "FEATURE_ID": 10001604, "ESITE": "00000", "CODE": 330, "NAME": "Indigo Urgent Care - Burien", "ABB_NAME": "Indigo Urgent Care", "ADDRESS": "15870 1st Ave S ", "ZIPCODE": "98148", "WEBSITE": null, "PIN": null, "MAJOR": null, "MINOR": null }, "geometry": { "type": "Point", "coordinates": [ -122.332944394064299, 47.459960437006231 ] } },
{ "type": "Feature", "properties": { "OBJECTID": 46, "FEATURE_ID": 10001610, "ESITE": "00000", "CODE": 330, "NAME": "Indigo Urgent Care - Shoreline", "ABB_NAME": "Indigo Urgent Care", "ADDRESS": "20120 Ballinger Way NE", "ZIPCODE": "98155", "WEBSITE": null, "PIN": null, "MAJOR": null, "MINOR": null }, "geometry": { "type": "Point", "coordinates": [ -122.310023726768051, 47.775684598674871 ] } },
{ "type": "Feature", "properties": { "OBJECTID": 47, "FEATURE_ID": 3300063, "ESITE": "00000", "CODE": 330, "NAME": "Navos Mental Health & Wellness Center", "ABB_NAME": "Navos Mental Health", "ADDRESS": "1210 SW 136th St", "ZIPCODE": "98166", "WEBSITE": null, "PIN": null, "MAJOR": null, "MINOR": null }, "geometry": { "type": "Point", "coordinates": [ -122.349854688752075, 47.481753669775181 ] } },
{ "type": "Feature", "properties": { "OBJECTID": 48, "FEATURE_ID": 2175, "ESITE": "714727", "CODE": 330, "NAME": "Virginia Mason Medical Center - Federal Way", "ABB_NAME": "Virginia Mason", "ADDRESS": "33501 1st Way S", "ZIPCODE": "98003", "WEBSITE": null, "PIN": null, "MAJOR": null, "MINOR": null }, "geometry": { "type": "Point", "coordinates": [ -122.330842974371876, 47.300455324447597 ] } },
{ "type": "Feature", "properties": { "OBJECTID": 49, "FEATURE_ID": 1506, "ESITE": "609352", "CODE": 330, "NAME": "Bloodworks Northwest - North Seattle", "ABB_NAME": "Bloodworks NW", "ADDRESS": "10357 Stone Ave N", "ZIPCODE": "98133", "WEBSITE": null, "PIN": null, "MAJOR": null, "MINOR": null }, "geometry": { "type": "Point", "coordinates": [ -122.342211488231385, 47.704828576978727 ] } },
{ "type": "Feature", "properties": { "OBJECTID": 50, "FEATURE_ID": 2652, "ESITE": "44178", "CODE": 330, "NAME": "Pacific Medical Center - Totem Lake", "ABB_NAME": "PacMed Center", "ADDRESS": "12910 Totem Lake Blvd NE", "ZIPCODE": "98034", "WEBSITE": null, "PIN": null, "MAJOR": null, "MINOR": null }, "geometry": { "type": "Point", "coordinates": [ -122.184357762779641, 47.716077644352808 ] } },
{ "type": "Feature", "properties": { "OBJECTID": 51, "FEATURE_ID": 1621, "ESITE": "00000", "CODE": 330, "NAME": "Navos Lake Burien", "ABB_NAME": "Navos", "ADDRESS": "1033 SW 152nd St", "ZIPCODE": "98166", "WEBSITE": null, "PIN": null, "MAJOR": null, "MINOR": null }, "geometry": { "type": "Point", "coordinates": [ -122.34913263985608, 47.465705839023222 ] } },
{ "type": "Feature", "properties": { "OBJECTID": 52, "FEATURE_ID": 10001648, "ESITE": "00000", "CODE": 330, "NAME": "UW Medicine Outpatient ", "ABB_NAME": "UW Medicine Outpatient ", "ADDRESS": "10330 Meridian Ave N", "ZIPCODE": "98133", "WEBSITE": null, "PIN": null, "MAJOR": null, "MINOR": null }, "geometry": { "type": "Point", "coordinates": [ -122.332426851050528, 47.704512238167048 ] } },
{ "type": "Feature", "properties": { "OBJECTID": 53, "FEATURE_ID": 2698, "ESITE": "394659", "CODE": 330, "NAME": "Enumclaw WIC at Valley Cities", "ABB_NAME": "Enumclaw WIC", "ADDRESS": "1335 Cole St", "ZIPCODE": "98022", "WEBSITE": null, "PIN": null, "MAJOR": null, "MINOR": null }, "geometry": { "type": "Point", "coordinates": [ -121.991504733848828, 47.201658667423501 ] } },
{ "type": "Feature", "properties": { "OBJECTID": 54, "FEATURE_ID": 10001657, "ESITE": "00000", "CODE": 330, "NAME": "Fred Hutch Cancer Center - Issaquah", "ABB_NAME": "Fred Hutch", "ADDRESS": "1740 NW Maple St", "ZIPCODE": "98027", "WEBSITE": null, "PIN": null, "MAJOR": null, "MINOR": null }, "geometry": { "type": "Point", "coordinates": [ -122.063838308288979, 47.543638837958845 ] } },
{ "type": "Feature", "properties": { "OBJECTID": 55, "FEATURE_ID": 1752, "ESITE": "440009", "CODE": 330, "NAME": "Pacific Medical Center - Beacon Hill", "ABB_NAME": "PacMed Center", "ADDRESS": "1200 12th Ave S", "ZIPCODE": "98144", "WEBSITE": null, "PIN": null, "MAJOR": null, "MINOR": null }, "geometry": { "type": "Point", "coordinates": [ -122.315987038093084, 47.592801117705889 ] } },
{ "type": "Feature", "properties": { "OBJECTID": 56, "FEATURE_ID": 2646, "ESITE": "881737", "CODE": 330, "NAME": "Kaiser Permanente - Bellevue", "ABB_NAME": "Kaiser Permanente", "ADDRESS": "11511 NE 10th St", "ZIPCODE": "98004", "WEBSITE": null, "PIN": null, "MAJOR": null, "MINOR": null }, "geometry": { "type": "Point", "coordinates": [ -122.186660218092214, 47.618728817902849 ] } },
{ "type": "Feature", "properties": { "OBJECTID": 57, "FEATURE_ID": 10001628, "ESITE": "00000", "CODE": 330, "NAME": "Swedish Hospital - Redmond Campus", "ABB_NAME": "Swedish Hospital", "ADDRESS": "18100 NE Union Hill Rd", "ZIPCODE": "98052", "WEBSITE": null, "PIN": null, "MAJOR": null, "MINOR": null }, "geometry": { "type": "Point", "coordinates": [ -122.098943291718044, 47.676420667312435 ] } },
{ "type": "Feature", "properties": { "OBJECTID": 58, "FEATURE_ID": 10001653, "ESITE": "00000", "CODE": 330, "NAME": "Valley Cities Behavioral Health Care - Kent", "ABB_NAME": "Valley Cities Behavioral Health Care", "ADDRESS": "505 Washington Ave S", "ZIPCODE": "98032", "WEBSITE": null, "PIN": null, "MAJOR": null, "MINOR": null }, "geometry": { "type": "Point", "coordinates": [ -122.248147470175695, 47.377412750210617 ] } },
{ "type": "Feature", "properties": { "OBJECTID": 59, "FEATURE_ID": 10001654, "ESITE": "00000", "CODE": 330, "NAME": "Valley Cities Behavioral Health Care - Seattle", "ABB_NAME": "Valley Cities Behavioral Health Care", "ADDRESS": "1701 18th Ave S", "ZIPCODE": "98144", "WEBSITE": null, "PIN": null, "MAJOR": null, "MINOR": null }, "geometry": { "type": "Point", "coordinates": [ -122.310129025845598, 47.58813171491321 ] } },
{ "type": "Feature", "properties": { "OBJECTID": 60, "FEATURE_ID": 2690, "ESITE": "38444", "CODE": 330, "NAME": "Virginia Mason Medical Center - Kirkland ", "ABB_NAME": "Virginia Mason", "ADDRESS": "13014 120th Ave NE", "ZIPCODE": "98034", "WEBSITE": null, "PIN": null, "MAJOR": null, "MINOR": null }, "geometry": { "type": "Point", "coordinates": [ -122.180058256108808, 47.717146015757422 ] } },
{ "type": "Feature", "properties": { "OBJECTID": 61, "FEATURE_ID": 2683, "ESITE": "606570", "CODE": 330, "NAME": "UW Medicine - Fairwood", "ABB_NAME": "UW Medicine", "ADDRESS": "14410 SE Petrovisky Rd", "ZIPCODE": "98058", "WEBSITE": null, "PIN": null, "MAJOR": null, "MINOR": null }, "geometry": { "type": "Point", "coordinates": [ -122.14816013961493, 47.444423235143134 ] } },
{ "type": "Feature", "properties": { "OBJECTID": 62, "FEATURE_ID": 2656, "ESITE": "0000000", "CODE": 330, "NAME": "HealthPoint - Sunset Neighborhood Center", "ABB_NAME": "HealthPoint", "ADDRESS": "2902 NE 12th St ", "ZIPCODE": "98056", "WEBSITE": null, "PIN": null, "MAJOR": null, "MINOR": null }, "geometry": { "type": "Point", "coordinates": [ -122.180902994706202, 47.503484142488702 ] } },
{ "type": "Feature", "properties": { "OBJECTID": 63, "FEATURE_ID": 2691, "ESITE": "840083", "CODE": 330, "NAME": "Virginia Mason Medical Center - University Village", "ABB_NAME": "Virginia Mason", "ADDRESS": "2671 NE 46th St", "ZIPCODE": "98105", "WEBSITE": null, "PIN": null, "MAJOR": null, "MINOR": null }, "geometry": { "type": "Point", "coordinates": [ -122.29820321645677, 47.661644693885137 ] } },
{ "type": "Feature", "properties": { "OBJECTID": 64, "FEATURE_ID": 10001667, "ESITE": "00000", "CODE": 330, "NAME": "MultiCare Tacoma General Emergency - Federal Way", "ABB_NAME": "MultiCare", "ADDRESS": "29805 Pacific Hwy S", "ZIPCODE": "98003", "WEBSITE": null, "PIN": null, "MAJOR": null, "MINOR": null }, "geometry": { "type": "Point", "coordinates": [ -122.312842907884232, 47.335276728358956 ] } },
{ "type": "Feature", "properties": { "OBJECTID": 65, "FEATURE_ID": 10001658, "ESITE": "00000", "CODE": 330, "NAME": "Fred Hutch Proton Therapy", "ABB_NAME": "Fred Hutch", "ADDRESS": "1570 N 115th St", "ZIPCODE": "98133", "WEBSITE": null, "PIN": null, "MAJOR": null, "MINOR": null }, "geometry": { "type": "Point", "coordinates": [ -122.336500788568884, 47.71273624695116 ] } },
{ "type": "Feature", "properties": { "OBJECTID": 66, "FEATURE_ID": 1826, "ESITE": "00000", "CODE": 330, "NAME": "Kaiser Permanente - Capitol Hill North", "ABB_NAME": "Kaiser Permanente", "ADDRESS": "310 15th Ave E", "ZIPCODE": "98112", "WEBSITE": null, "PIN": null, "MAJOR": null, "MINOR": null }, "geometry": { "type": "Point", "coordinates": [ -122.312392575855014, 47.620878001193802 ] } },
{ "type": "Feature", "properties": { "OBJECTID": 67, "FEATURE_ID": 1731, "ESITE": "437345", "CODE": 330, "NAME": "Nordstrom Medical Tower", "ABB_NAME": "Nordstrom Medical Tower", "ADDRESS": "1229 Madison St", "ZIPCODE": "98104", "WEBSITE": null, "PIN": null, "MAJOR": null, "MINOR": null }, "geometry": { "type": "Point", "coordinates": [ -122.321857642428668, 47.610121874861392 ] } },
{ "type": "Feature", "properties": { "OBJECTID": 68, "FEATURE_ID": 2703, "ESITE": "616260", "CODE": 330, "NAME": "HealthPoint - Kent", "ABB_NAME": "HealthPoint ", "ADDRESS": "403 E Meeker St", "ZIPCODE": "98030", "WEBSITE": null, "PIN": null, "MAJOR": null, "MINOR": null }, "geometry": { "type": "Point", "coordinates": [ -122.229348067709836, 47.381910621915701 ] } },
{ "type": "Feature", "properties": { "OBJECTID": 69, "FEATURE_ID": 10001647, "ESITE": "00000", "CODE": 330, "NAME": "UW Medicine - Northgate", "ABB_NAME": "UW Medicine", "ADDRESS": "314 NE Thornton Pl", "ZIPCODE": "98125", "WEBSITE": null, "PIN": null, "MAJOR": null, "MINOR": null }, "geometry": { "type": "Point", "coordinates": [ -122.325037309656409, 47.702803031798013 ] } },
{ "type": "Feature", "properties": { "OBJECTID": 70, "FEATURE_ID": 10001655, "ESITE": "00000", "CODE": 330, "NAME": "Valley Cities Behavioral Health Care - Pike Place", "ABB_NAME": "Valley Cities Behavioral Health Care", "ADDRESS": "1537 Western Ave", "ZIPCODE": "98101", "WEBSITE": null, "PIN": null, "MAJOR": null, "MINOR": null }, "geometry": { "type": "Point", "coordinates": [ -122.342231274735227, 47.60898255694417 ] } },
{ "type": "Feature", "properties": { "OBJECTID": 71, "FEATURE_ID": 2648, "ESITE": "669345", "CODE": 330, "NAME": "Kaiser Permanente - Kent", "ABB_NAME": "Kaiser Permanente", "ADDRESS": "26004 104th Ave SE", "ZIPCODE": "98030", "WEBSITE": null, "PIN": null, "MAJOR": null, "MINOR": null }, "geometry": { "type": "Point", "coordinates": [ -122.201849184980176, 47.368523654860624 ] } },
{ "type": "Feature", "properties": { "OBJECTID": 72, "FEATURE_ID": 2679, "ESITE": "14062", "CODE": 330, "NAME": "UW Medical Center - Roosevelt", "ABB_NAME": "UW Medical Center", "ADDRESS": "4225 Roosevelt Way NE", "ZIPCODE": "98105", "WEBSITE": null, "PIN": null, "MAJOR": null, "MINOR": null }, "geometry": { "type": "Point", "coordinates": [ -122.318255254605788, 47.658251579907329 ] } },
{ "type": "Feature", "properties": { "OBJECTID": 73, "FEATURE_ID": 1615, "ESITE": "177415", "CODE": 330, "NAME": "Kaiser Permanente - Northshore ", "ABB_NAME": "Kaiser Permanente", "ADDRESS": "11913 NE 195th St", "ZIPCODE": "98011", "WEBSITE": null, "PIN": null, "MAJOR": null, "MINOR": null }, "geometry": { "type": "Point", "coordinates": [ -122.180693021952777, 47.76859935145157 ] } },
{ "type": "Feature", "properties": { "OBJECTID": 74, "FEATURE_ID": 10001649, "ESITE": "00000", "CODE": 330, "NAME": "Valley Cities Behavioral Health Care - Enumclaw", "ABB_NAME": "Valley Cities Behavioral Health Care ", "ADDRESS": "1335 Cole Street", "ZIPCODE": "98022", "WEBSITE": null, "PIN": null, "MAJOR": null, "MINOR": null }, "geometry": { "type": "Point", "coordinates": [ -121.991504733848828, 47.201658667423501 ] } },
{ "type": "Feature", "properties": { "OBJECTID": 75, "FEATURE_ID": 10001661, "ESITE": "00000", "CODE": 330, "NAME": "MultiCare Medical Center - Maple Valley", "ABB_NAME": "MultiCare", "ADDRESS": "24080 SE Kent Kangley Rd", "ZIPCODE": "98038", "WEBSITE": null, "PIN": null, "MAJOR": null, "MINOR": null }, "geometry": { "type": "Point", "coordinates": [ -122.018235027691119, 47.361942950627174 ] } },
{ "type": "Feature", "properties": { "OBJECTID": 76, "FEATURE_ID": 10001650, "ESITE": "00000", "CODE": 330, "NAME": "Valley Cities Behavioral Health Care - Meridian Center", "ABB_NAME": "Valley Cities Behavioral Health Care", "ADDRESS": "10521 Meridian Ave N", "ZIPCODE": "98133", "WEBSITE": null, "PIN": null, "MAJOR": null, "MINOR": null }, "geometry": { "type": "Point", "coordinates": [ -122.334773681395944, 47.705982575066237 ] } },
{ "type": "Feature", "properties": { "OBJECTID": 77, "FEATURE_ID": 10001651, "ESITE": "00000", "CODE": 330, "NAME": "Valley Cities Behavioral Health Care - Rainier Beach", "ABB_NAME": "Valley Cities Behavioral Health Care", "ADDRESS": "8444 Rainier Ave S", "ZIPCODE": "98118", "WEBSITE": null, "PIN": null, "MAJOR": null, "MINOR": null }, "geometry": { "type": "Point", "coordinates": [ -122.269697075651578, 47.526753722955647 ] } },
{ "type": "Feature", "properties": { "OBJECTID": 78, "FEATURE_ID": 10001656, "ESITE": "00000", "CODE": 330, "NAME": "Valley Cities Behavioral Health Care - Bitter Lake", "ABB_NAME": "Valley Cities Behavioral Health Care", "ADDRESS": "929 N 130th St", "ZIPCODE": "98133", "WEBSITE": null, "PIN": null, "MAJOR": null, "MINOR": null }, "geometry": { "type": "Point", "coordinates": [ -122.346183271606691, 47.722946071090334 ] } },
{ "type": "Feature", "properties": { "OBJECTID": 79, "FEATURE_ID": 10001659, "ESITE": "00000", "CODE": 330, "NAME": "MultiCare Medical Center - Covington ", "ABB_NAME": "MultiCare", "ADDRESS": "17700 SE 272nd St", "ZIPCODE": "98042", "WEBSITE": null, "PIN": null, "MAJOR": null, "MINOR": null }, "geometry": { "type": "Point", "coordinates": [ -122.104425696464176, 47.35884804210405 ] } },
{ "type": "Feature", "properties": { "OBJECTID": 80, "FEATURE_ID": 10000040, "ESITE": "12265", "CODE": 330, "NAME": "HealthPoint - Evergreen Campus", "ABB_NAME": "HealthPoint", "ADDRESS": "830 SW 116th St", "ZIPCODE": "98146", "WEBSITE": null, "PIN": null, "MAJOR": null, "MINOR": null }, "geometry": { "type": "Point", "coordinates": [ -122.345428900504857, 47.500357286961844 ] } },
{ "type": "Feature", "properties": { "OBJECTID": 81, "FEATURE_ID": 1618, "ESITE": "712275", "CODE": 330, "NAME": "Kaiser Permanente - Federal Way", "ABB_NAME": "Kaiser Permanente", "ADDRESS": "301 S 320th St", "ZIPCODE": "98003", "WEBSITE": null, "PIN": null, "MAJOR": null, "MINOR": null }, "geometry": { "type": "Point", "coordinates": [ -122.331654248767876, 47.314163963399551 ] } },
{ "type": "Feature", "properties": { "OBJECTID": 82, "FEATURE_ID": 693, "ESITE": "597748", "CODE": 330, "NAME": "Valley Medical Center Hospital", "ABB_NAME": "Valley Medical Center Hospital", "ADDRESS": "400 S 43rd St", "ZIPCODE": "98055", "WEBSITE": "https://www.valleymed.org/", "PIN": "8857670010", "MAJOR": "885767", "MINOR": "0010" }, "geometry": { "type": "Point", "coordinates": [ -122.214250986788144, 47.442718961355204 ] } },
{ "type": "Feature", "properties": { "OBJECTID": 83, "FEATURE_ID": 10000042, "ESITE": "707622", "CODE": 330, "NAME": "HealthPoint - Auburn North", "ABB_NAME": "HealthPoint", "ADDRESS": "923 Auburn Way N", "ZIPCODE": "98002", "WEBSITE": null, "PIN": null, "MAJOR": null, "MINOR": null }, "geometry": { "type": "Point", "coordinates": [ -122.222376155558393, 47.317092029002779 ] } },
{ "type": "Feature", "properties": { "OBJECTID": 84, "FEATURE_ID": 10001660, "ESITE": "00000", "CODE": 330, "NAME": "MultiCare Family Medicine - Kent", "ABB_NAME": "MultiCare", "ADDRESS": "219 State Ave N", "ZIPCODE": "98030", "WEBSITE": null, "PIN": null, "MAJOR": null, "MINOR": null }, "geometry": { "type": "Point", "coordinates": [ -122.230097276490909, 47.382712856071628 ] } },
{ "type": "Feature", "properties": { "OBJECTID": 85, "FEATURE_ID": 2699, "ESITE": "719555", "CODE": 330, "NAME": "HealthPoint - Auburn", "ABB_NAME": "HealthPoint", "ADDRESS": "126 Auburn Ave", "ZIPCODE": "98002", "WEBSITE": null, "PIN": null, "MAJOR": null, "MINOR": null }, "geometry": { "type": "Point", "coordinates": [ -122.227479539553045, 47.308921209903751 ] } },
{ "type": "Feature", "properties": { "OBJECTID": 86, "FEATURE_ID": 10001612, "ESITE": "00000", "CODE": 330, "NAME": "Northwest Kidney Centers - Auburn", "ABB_NAME": "Northwest Kidney Centers", "ADDRESS": "1501 West Valley Hwy N", "ZIPCODE": "98001", "WEBSITE": null, "PIN": null, "MAJOR": null, "MINOR": null }, "geometry": { "type": "Point", "coordinates": [ -122.250482478930977, 47.322837358114192 ] } },
{ "type": "Feature", "properties": { "OBJECTID": 87, "FEATURE_ID": 10001618, "ESITE": "00000", "CODE": 330, "NAME": "Northwest Kidney Centers - Kent", "ABB_NAME": "Northwest Kidney Centers", "ADDRESS": "25316 74th Ave S", "ZIPCODE": "98032", "WEBSITE": null, "PIN": null, "MAJOR": null, "MINOR": null }, "geometry": { "type": "Point", "coordinates": [ -122.241928038350309, 47.37431088048838 ] } },
{ "type": "Feature", "properties": { "OBJECTID": 88, "FEATURE_ID": 10001620, "ESITE": "00000", "CODE": 330, "NAME": "Northwest Kidney Centers - Lake City", "ABB_NAME": "Northwest Kidney Centers", "ADDRESS": "14524 Bothell Way NE", "ZIPCODE": "98155", "WEBSITE": null, "PIN": null, "MAJOR": null, "MINOR": null }, "geometry": { "type": "Point", "coordinates": [ -122.291951802425459, 47.734578362822603 ] } },
{ "type": "Feature", "properties": { "OBJECTID": 89, "FEATURE_ID": 10001623, "ESITE": "00000", "CODE": 330, "NAME": "Northwest Kidney Centers - Scribner", "ABB_NAME": "Northwest Kidney Centers", "ADDRESS": "2150 N 107th St", "ZIPCODE": "98133", "WEBSITE": null, "PIN": null, "MAJOR": null, "MINOR": null }, "geometry": { "type": "Point", "coordinates": [ -122.331936327229755, 47.707476121471842 ] } },
{ "type": "Feature", "properties": { "OBJECTID": 90, "FEATURE_ID": 10001603, "ESITE": "00000", "CODE": 330, "NAME": "Indigo Urgent Care - Wallingford", "ABB_NAME": "Indigo Urgent Care", "ADDRESS": "118 NE 45th St", "ZIPCODE": "98105", "WEBSITE": null, "PIN": null, "MAJOR": null, "MINOR": null }, "geometry": { "type": "Point", "coordinates": [ -122.327700049256862, 47.661600542374039 ] } },
{ "type": "Feature", "properties": { "OBJECTID": 91, "FEATURE_ID": 10001624, "ESITE": "00000", "CODE": 330, "NAME": "Northwest Kidney Centers - SeaTac", "ABB_NAME": "Northwest Kidney Centers", "ADDRESS": "17900 International Blvd S", "ZIPCODE": "98188", "WEBSITE": null, "PIN": null, "MAJOR": null, "MINOR": null }, "geometry": { "type": "Point", "coordinates": [ -122.294495768389353, 47.442559087023533 ] } },
{ "type": "Feature", "properties": { "OBJECTID": 92, "FEATURE_ID": 10001625, "ESITE": "00000", "CODE": 330, "NAME": "Northwest Kidney Centers - Seattle", "ABB_NAME": "Northwest Kidney Centers", "ADDRESS": "548 15th Ave", "ZIPCODE": "98122", "WEBSITE": null, "PIN": null, "MAJOR": null, "MINOR": null }, "geometry": { "type": "Point", "coordinates": [ -122.312529659265977, 47.607669654813819 ] } },
{ "type": "Feature", "properties": { "OBJECTID": 93, "FEATURE_ID": 10000044, "ESITE": "735784", "CODE": 330, "NAME": "HealthPoint - Tukwila", "ABB_NAME": "HealthPoint", "ADDRESS": "13030 Military Rd S", "ZIPCODE": "98168", "WEBSITE": null, "PIN": null, "MAJOR": null, "MINOR": null }, "geometry": { "type": "Point", "coordinates": [ -122.295108673947183, 47.485961305722952 ] } },
{ "type": "Feature", "properties": { "OBJECTID": 94, "FEATURE_ID": 3300047, "ESITE": "773391", "CODE": 330, "NAME": "Kindred Hospital Seattle - First Hill", "ABB_NAME": "Kindred Hospital", "ADDRESS": "1334 Terry Ave", "ZIPCODE": "98101", "WEBSITE": null, "PIN": null, "MAJOR": null, "MINOR": null }, "geometry": { "type": "Point", "coordinates": [ -122.328571677583255, 47.611855407646857 ] } },
{ "type": "Feature", "properties": { "OBJECTID": 95, "FEATURE_ID": 1585, "ESITE": "168945", "CODE": 330, "NAME": "Fairfax Hospital", "ABB_NAME": "Fairfax Hospital", "ADDRESS": "10200 NE 132nd St", "ZIPCODE": "98034", "WEBSITE": null, "PIN": null, "MAJOR": null, "MINOR": null }, "geometry": { "type": "Point", "coordinates": [ -122.204415457200597, 47.719454096059877 ] } },
{ "type": "Feature", "properties": { "OBJECTID": 96, "FEATURE_ID": 103, "ESITE": "711911", "CODE": 330, "NAME": "St. Francis Hospital", "ABB_NAME": "St. Francis Hospital", "ADDRESS": "34515 9th Ave S", "ZIPCODE": "98003", "WEBSITE": "https://www.vmfh.org/our-hospitals/st-francis-hospital", "PIN": "7504510020", "MAJOR": "750451", "MINOR": "0020" }, "geometry": { "type": "Point", "coordinates": [ -122.327282139924222, 47.292610261579057 ] } },
{ "type": "Feature", "properties": { "OBJECTID": 97, "FEATURE_ID": 1616, "ESITE": "574256", "CODE": 330, "NAME": "Kaiser Permanente - Burien", "ABB_NAME": "Kaiser Permanente", "ADDRESS": "140 SW 146th St", "ZIPCODE": "98166", "WEBSITE": null, "PIN": null, "MAJOR": null, "MINOR": null }, "geometry": { "type": "Point", "coordinates": [ -122.336395270789922, 47.472526861717604 ] } },
{ "type": "Feature", "properties": { "OBJECTID": 98, "FEATURE_ID": 10001615, "ESITE": "00000", "CODE": 330, "NAME": "Northwest Kidney Centers - Enumclaw", "ABB_NAME": "Northwest Kidney Centers", "ADDRESS": "857 Roosevelt Ave E", "ZIPCODE": "98022", "WEBSITE": null, "PIN": null, "MAJOR": null, "MINOR": null }, "geometry": { "type": "Point", "coordinates": [ -121.969345023983422, 47.199643861632062 ] } },
{ "type": "Feature", "properties": { "OBJECTID": 99, "FEATURE_ID": 1489, "ESITE": "00000", "CODE": 330, "NAME": "Kaiser Permanente - Capitol Hill South", "ABB_NAME": "Kaiser Permanente", "ADDRESS": "125 16th Ave E", "ZIPCODE": "98112", "WEBSITE": null, "PIN": null, "MAJOR": null, "MINOR": null }, "geometry": { "type": "Point", "coordinates": [ -122.312207778653445, 47.619018988248165 ] } },
{ "type": "Feature", "properties": { "OBJECTID": 100, "FEATURE_ID": 10001627, "ESITE": "00000", "CODE": 330, "NAME": "Northwest Kidney Centers - Panther Lake", "ABB_NAME": "Northwest Kidney Centers", "ADDRESS": "10821 SE 204th St", "ZIPCODE": "98031", "WEBSITE": null, "PIN": null, "MAJOR": null, "MINOR": null }, "geometry": { "type": "Point", "coordinates": [ -122.19634112098106, 47.419192550177002 ] } },
{ "type": "Feature", "properties": { "OBJECTID": 101, "FEATURE_ID": 10001671, "ESITE": "00000", "CODE": 330, "NAME": "EvergreenHealth Urgent Care - Kenmore", "ABB_NAME": "EvergreenHealth Urgent Care", "ADDRESS": "18151 68th Ave NE", "ZIPCODE": "98028", "WEBSITE": null, "PIN": null, "MAJOR": null, "MINOR": null }, "geometry": { "type": "Point", "coordinates": [ -122.250114434810058, 47.76056135750396 ] } },
{ "type": "Feature", "properties": { "OBJECTID": 102, "FEATURE_ID": 10001682, "ESITE": "00000", "CODE": 330, "NAME": "Planned Parenthood Health Center - White Center", "ABB_NAME": "Planned Parenthood", "ADDRESS": "9942 8th Ave SW", "ZIPCODE": "98106", "WEBSITE": null, "PIN": null, "MAJOR": null, "MINOR": null }, "geometry": { "type": "Point", "coordinates": [ -122.344964528276194, 47.514064706786343 ] } },
{ "type": "Feature", "properties": { "OBJECTID": 103, "FEATURE_ID": 10000045, "ESITE": "397165", "CODE": 330, "NAME": "HealthPoint - Tyee Campus", "ABB_NAME": "HealthPoint", "ADDRESS": "4424 S 188th St", "ZIPCODE": "98188", "WEBSITE": null, "PIN": null, "MAJOR": null, "MINOR": null }, "geometry": { "type": "Point", "coordinates": [ -122.277393570710132, 47.435538689097505 ] } },
{ "type": "Feature", "properties": { "OBJECTID": 104, "FEATURE_ID": 10001613, "ESITE": "00000", "CODE": 330, "NAME": "Northwest Kidney Centers - Bellevue", "ABB_NAME": "Northwest Kidney Centers", "ADDRESS": "1474 112th Ave NE", "ZIPCODE": "98004", "WEBSITE": null, "PIN": null, "MAJOR": null, "MINOR": null }, "geometry": { "type": "Point", "coordinates": [ -122.189647682815988, 47.623838420625816 ] } },
{ "type": "Feature", "properties": { "OBJECTID": 105, "FEATURE_ID": 10001621, "ESITE": "00000", "CODE": 330, "NAME": "Northwest Kidney Centers - Rainier Beach", "ABB_NAME": "Northwest Kidney Centers", "ADDRESS": "4401 S Trenton St", "ZIPCODE": "98118", "WEBSITE": null, "PIN": null, "MAJOR": null, "MINOR": null }, "geometry": { "type": "Point", "coordinates": [ -122.277508478719014, 47.524019235709972 ] } },
{ "type": "Feature", "properties": { "OBJECTID": 106, "FEATURE_ID": 2682, "ESITE": "664049", "CODE": 330, "NAME": "Valley Medical Center - Covington Clinic", "ABB_NAME": "Valley Medical Center", "ADDRESS": "27500 168th Pl SE", "ZIPCODE": "98042", "WEBSITE": null, "PIN": null, "MAJOR": null, "MINOR": null }, "geometry": { "type": "Point", "coordinates": [ -122.116933889524347, 47.354981404880263 ] } },
{ "type": "Feature", "properties": { "OBJECTID": 107, "FEATURE_ID": 502, "ESITE": "39289", "CODE": 330, "NAME": "EvergreenHealth Medical Center", "ABB_NAME": "EvergreenHealth Medical Center", "ADDRESS": "12040 NE 128th St", "ZIPCODE": "98034", "WEBSITE": "https://www.evergreenhealth.com/", "PIN": "2826059144", "MAJOR": "282605", "MINOR": "9144" }, "geometry": { "type": "Point", "coordinates": [ -122.178708114244031, 47.71580893280882 ] } },
{ "type": "Feature", "properties": { "OBJECTID": 108, "FEATURE_ID": 2380, "ESITE": "707843", "CODE": 330, "NAME": "Valor Healthcare VA Outpatient", "ABB_NAME": "Valor Healthcare VA", "ADDRESS": "34617 11th Ave S", "ZIPCODE": "98003", "WEBSITE": null, "PIN": null, "MAJOR": null, "MINOR": null }, "geometry": { "type": "Point", "coordinates": [ -122.320261047998301, 47.29139290510426 ] } },
{ "type": "Feature", "properties": { "OBJECTID": 109, "FEATURE_ID": 10001619, "ESITE": "00000", "CODE": 330, "NAME": "Northwest Kidney Centers - Kirkland", "ABB_NAME": "Northwest Kidney Centers", "ADDRESS": "11327 NE 120th St", "ZIPCODE": "98034", "WEBSITE": null, "PIN": null, "MAJOR": null, "MINOR": null }, "geometry": { "type": "Point", "coordinates": [ -122.189737193158933, 47.706115815119873 ] } },
{ "type": "Feature", "properties": { "OBJECTID": 110, "FEATURE_ID": 10001622, "ESITE": "00000", "CODE": 330, "NAME": "Northwest Kidney Centers - Renton", "ABB_NAME": "Northwest Kidney Centers", "ADDRESS": "602 Oakesdale Ave SW", "ZIPCODE": "98057", "WEBSITE": null, "PIN": null, "MAJOR": null, "MINOR": null }, "geometry": { "type": "Point", "coordinates": [ -122.237358686819121, 47.473983930452121 ] } },
{ "type": "Feature", "properties": { "OBJECTID": 111, "FEATURE_ID": 10000043, "ESITE": "381228", "CODE": 330, "NAME": "HealthPoint - Midway", "ABB_NAME": "HealthPoint", "ADDRESS": "26401 Pacific Hwy S", "ZIPCODE": "98198", "WEBSITE": null, "PIN": null, "MAJOR": null, "MINOR": null }, "geometry": { "type": "Point", "coordinates": [ -122.30624308267241, 47.365128032013345 ] } },
{ "type": "Feature", "properties": { "OBJECTID": 112, "FEATURE_ID": 10001670, "ESITE": "00000", "CODE": 330, "NAME": "EvergreenHealth Urgent Care - Woodinville", "ABB_NAME": "EvergreenHealth Urgent Care", "ADDRESS": "16916 140th Ave NE", "ZIPCODE": "98072", "WEBSITE": null, "PIN": null, "MAJOR": null, "MINOR": null }, "geometry": { "type": "Point", "coordinates": [ -122.151948502451788, 47.750609827489434 ] } },
{ "type": "Feature", "properties": { "OBJECTID": 113, "FEATURE_ID": 10001662, "ESITE": "00000", "CODE": 330, "NAME": "Mary Bridge Children's Therapy Center", "ABB_NAME": "Mary Bridge Children's", "ADDRESS": "3600 Lind Ave SW", "ZIPCODE": "98057", "WEBSITE": null, "PIN": null, "MAJOR": null, "MINOR": null }, "geometry": { "type": "Point", "coordinates": [ -122.222773996765454, 47.446469411917654 ] } },
{ "type": "Feature", "properties": { "OBJECTID": 114, "FEATURE_ID": 10001614, "ESITE": "00000", "CODE": 330, "NAME": "Northwest Kidney Centers - SeaTac", "ABB_NAME": "Northwest Kidney Centers", "ADDRESS": "12901 20th Ave S", "ZIPCODE": "98168", "WEBSITE": null, "PIN": null, "MAJOR": null, "MINOR": null }, "geometry": { "type": "Point", "coordinates": [ -122.308106036660647, 47.487272174457395 ] } },
{ "type": "Feature", "properties": { "OBJECTID": 115, "FEATURE_ID": 10001616, "ESITE": "00000", "CODE": 330, "NAME": "Northwest Kidney Centers - Federal Way East", "ABB_NAME": "Northwest Kidney Centers", "ADDRESS": "33820 Weyerhaeuser Way S", "ZIPCODE": "98001", "WEBSITE": null, "PIN": null, "MAJOR": null, "MINOR": null }, "geometry": { "type": "Point", "coordinates": [ -122.288874317393734, 47.298335196142162 ] } },
{ "type": "Feature", "properties": { "OBJECTID": 116, "FEATURE_ID": 10001617, "ESITE": "00000", "CODE": 330, "NAME": "Northwest Kidney Centers - Federal Way West", "ABB_NAME": "Northwest Kidney Centers", "ADDRESS": "501 S 336th St", "ZIPCODE": "98003", "WEBSITE": null, "PIN": null, "MAJOR": null, "MINOR": null }, "geometry": { "type": "Point", "coordinates": [ -122.327759323754179, 47.299030227483861 ] } },
{ "type": "Feature", "properties": { "OBJECTID": 117, "FEATURE_ID": 10001629, "ESITE": "00000", "CODE": 330, "NAME": "Swedish Primary Care - Richmond Beach", "ABB_NAME": "Swedish Primary Care", "ADDRESS": "604 NW Richmond Beach Rd", "ZIPCODE": "98177", "WEBSITE": null, "PIN": null, "MAJOR": null, "MINOR": null }, "geometry": { "type": "Point", "coordinates": [ -122.364582739941284, 47.765837420705147 ] } },
{ "type": "Feature", "properties": { "OBJECTID": 118, "FEATURE_ID": 10001630, "ESITE": "00000", "CODE": 330, "NAME": "Swedish Primary Care - Bellevue", "ABB_NAME": "Swedish Primary Care", "ADDRESS": "1200 112th Ave NE", "ZIPCODE": "98004", "WEBSITE": null, "PIN": null, "MAJOR": null, "MINOR": null }, "geometry": { "type": "Point", "coordinates": [ -122.190614211802114, 47.62197795763138 ] } },
{ "type": "Feature", "properties": { "OBJECTID": 119, "FEATURE_ID": 10001636, "ESITE": "00000", "CODE": 330, "NAME": "Swedish Primary Care - Factoria", "ABB_NAME": "Swedish Primary Care", "ADDRESS": "12917 SE 38th St", "ZIPCODE": "98006", "WEBSITE": null, "PIN": null, "MAJOR": null, "MINOR": null }, "geometry": { "type": "Point", "coordinates": [ -122.167507945727223, 47.575780409306859 ] } },
{ "type": "Feature", "properties": { "OBJECTID": 120, "FEATURE_ID": 10001637, "ESITE": "00000", "CODE": 330, "NAME": "Swedish Primary Care - Klahanie", "ABB_NAME": "Swedish Primary Care", "ADDRESS": "4560 Klahanie Dr SE", "ZIPCODE": "98029", "WEBSITE": null, "PIN": null, "MAJOR": null, "MINOR": null }, "geometry": { "type": "Point", "coordinates": [ -122.004031847631012, 47.566161981503363 ] } },
{ "type": "Feature", "properties": { "OBJECTID": 121, "FEATURE_ID": 10001663, "ESITE": "00000", "CODE": 330, "NAME": "Mary Bridge Children's Pediatrics", "ABB_NAME": "Mary Bridge Children's", "ADDRESS": "24080 SE Kent Kangley Rd", "ZIPCODE": "98038", "WEBSITE": null, "PIN": null, "MAJOR": null, "MINOR": null }, "geometry": { "type": "Point", "coordinates": [ -122.018235027691119, 47.361942950627174 ] } },
{ "type": "Feature", "properties": { "OBJECTID": 122, "FEATURE_ID": 10001669, "ESITE": "00000", "CODE": 330, "NAME": "EvergreenHealth Urgent Care - Redmond", "ABB_NAME": "EvergreenHealth Urgent Care", "ADDRESS": "8980 161st Ave NE", "ZIPCODE": "98052", "WEBSITE": null, "PIN": null, "MAJOR": null, "MINOR": null }, "geometry": { "type": "Point", "coordinates": [ -122.12370306402174, 47.682259390440038 ] } },
{ "type": "Feature", "properties": { "OBJECTID": 123, "FEATURE_ID": 10001681, "ESITE": "00000", "CODE": 330, "NAME": "Planned Parenthood Health Center - Northgate", "ABB_NAME": "Planned Parenthood", "ADDRESS": "1200 N Northgate Way", "ZIPCODE": "98133", "WEBSITE": null, "PIN": null, "MAJOR": null, "MINOR": null }, "geometry": { "type": "Point", "coordinates": [ -122.342963440379208, 47.705301825503916 ] } },
{ "type": "Feature", "properties": { "OBJECTID": 124, "FEATURE_ID": 10001683, "ESITE": "00000", "CODE": 330, "NAME": "Planned Parenthood Health Center - Federal Way", "ABB_NAME": "Planned Parenthood", "ADDRESS": "1105 S 348th St", "ZIPCODE": "98003", "WEBSITE": null, "PIN": null, "MAJOR": null, "MINOR": null }, "geometry": { "type": "Point", "coordinates": [ -122.319916698289916, 47.288996692646108 ] } },
{ "type": "Feature", "properties": { "OBJECTID": 125, "FEATURE_ID": 3300016, "ESITE": "446015", "CODE": 330, "NAME": "Bloodworks Northwest - Seattle Central", "ABB_NAME": "Bloodworks NW", "ADDRESS": "921 Terry Ave", "ZIPCODE": "98104", "WEBSITE": null, "PIN": null, "MAJOR": null, "MINOR": null }, "geometry": { "type": "Point", "coordinates": [ -122.326366139855068, 47.608451403999055 ] } },
{ "type": "Feature", "properties": { "OBJECTID": 126, "FEATURE_ID": 2684, "ESITE": "898887", "CODE": 330, "NAME": "Valley Medical Center - Highlands Clinic", "ABB_NAME": "Valley Medical Center", "ADDRESS": "3901 NE 4th St", "ZIPCODE": "98056", "WEBSITE": null, "PIN": null, "MAJOR": null, "MINOR": null }, "geometry": { "type": "Point", "coordinates": [ -122.165288728763173, 47.48784793670881 ] } },
{ "type": "Feature", "properties": { "OBJECTID": 127, "FEATURE_ID": 1504, "ESITE": "0000000", "CODE": 330, "NAME": "Bloodworks Northwest - Federal Way", "ABB_NAME": "Bloodworks NW", "ADDRESS": "1414 S 324th St ", "ZIPCODE": "98003", "WEBSITE": null, "PIN": null, "MAJOR": null, "MINOR": null }, "geometry": { "type": "Point", "coordinates": [ -122.315431113362095, 47.312270529346293 ] } },
{ "type": "Feature", "properties": { "OBJECTID": 128, "FEATURE_ID": 2685, "ESITE": "659790", "CODE": 330, "NAME": "UW Medicine - Kent", "ABB_NAME": "UW Medicine", "ADDRESS": "24920 104th Ave SE", "ZIPCODE": "98030", "WEBSITE": null, "PIN": null, "MAJOR": null, "MINOR": null }, "geometry": { "type": "Point", "coordinates": [ -122.201428785605685, 47.378647834277871 ] } },
{ "type": "Feature", "properties": { "OBJECTID": 129, "FEATURE_ID": 10001634, "ESITE": "00000", "CODE": 330, "NAME": "Swedish Primary Care - Sand Point", "ABB_NAME": "Swedish Primary Care", "ADDRESS": "4540 Union Bay Pl NE", "ZIPCODE": "98105", "WEBSITE": null, "PIN": null, "MAJOR": null, "MINOR": null }, "geometry": { "type": "Point", "coordinates": [ -122.293640653579175, 47.662428737638969 ] } },
{ "type": "Feature", "properties": { "OBJECTID": 130, "FEATURE_ID": 1815, "ESITE": "00000", "CODE": 330, "NAME": "Kaiser Permanente - Ballard", "ABB_NAME": "Kaiser Permanente", "ADDRESS": "1401 NW 46th St", "ZIPCODE": "98107", "WEBSITE": null, "PIN": null, "MAJOR": null, "MINOR": null }, "geometry": { "type": "Point", "coordinates": [ -122.374322586337271, 47.662019256805429 ] } },
{ "type": "Feature", "properties": { "OBJECTID": 131, "FEATURE_ID": 1622, "ESITE": "834234", "CODE": 330, "NAME": "Kaiser Permanente - Northgate", "ABB_NAME": "Kaiser Permanente", "ADDRESS": "9800 4th Ave NE", "ZIPCODE": "98115", "WEBSITE": null, "PIN": null, "MAJOR": null, "MINOR": null }, "geometry": { "type": "Point", "coordinates": [ -122.323787581068544, 47.700869666304662 ] } },
{ "type": "Feature", "properties": { "OBJECTID": 132, "FEATURE_ID": 1625, "ESITE": "582523", "CODE": 330, "NAME": "Kaiser Permanente - Renton", "ABB_NAME": "Kaiser Permanente", "ADDRESS": "275 Bronson Way NE", "ZIPCODE": "98056", "WEBSITE": null, "PIN": null, "MAJOR": null, "MINOR": null }, "geometry": { "type": "Point", "coordinates": [ -122.192627047910662, 47.486629871683448 ] } },
{ "type": "Feature", "properties": { "OBJECTID": 133, "FEATURE_ID": 10001672, "ESITE": "00000", "CODE": 330, "NAME": "EvergreenHealth Urgent Care - Sammamish", "ABB_NAME": "EvergreenHealth Urgent Care", "ADDRESS": "22850 NE 8th St", "ZIPCODE": "98074", "WEBSITE": null, "PIN": null, "MAJOR": null, "MINOR": null }, "geometry": { "type": "Point", "coordinates": [ -122.033439493442955, 47.61688334100031 ] } },
{ "type": "Feature", "properties": { "OBJECTID": 134, "FEATURE_ID": 872, "ESITE": "349884", "CODE": 330, "NAME": "Seattle Children's Hospital", "ABB_NAME": "Seattle Children's Hospital", "ADDRESS": "4800 Sand Point Way NE", "ZIPCODE": "98105", "WEBSITE": "https://www.seattlechildrens.org/", "PIN": "2982800005", "MAJOR": "298280", "MINOR": "0005" }, "geometry": { "type": "Point", "coordinates": [ -122.281480766404826, 47.66239057806564 ] } },
{ "type": "Feature", "properties": { "OBJECTID": 135, "FEATURE_ID": 2705, "ESITE": "1002788", "CODE": 330, "NAME": "HealthPoint - SeaTac", "ABB_NAME": "HealthPoint", "ADDRESS": "4040 S 188th St", "ZIPCODE": "98188", "WEBSITE": null, "PIN": null, "MAJOR": null, "MINOR": null }, "geometry": { "type": "Point", "coordinates": [ -122.282444350398649, 47.434696350212576 ] } },
{ "type": "Feature", "properties": { "OBJECTID": 136, "FEATURE_ID": 10001633, "ESITE": "00000", "CODE": 330, "NAME": "Swedish Primary Care - Renton", "ABB_NAME": "Swedish Primary Care", "ADDRESS": "911 N 10th Pl", "ZIPCODE": "98057", "WEBSITE": null, "PIN": null, "MAJOR": null, "MINOR": null }, "geometry": { "type": "Point", "coordinates": [ -122.202891263310164, 47.498422520945248 ] } },
{ "type": "Feature", "properties": { "OBJECTID": 137, "FEATURE_ID": 1503, "ESITE": "106214", "CODE": 330, "NAME": "Bloodworks Northwest - Bellevue", "ABB_NAME": "Bloodworks NW", "ADDRESS": "1807 132nd Ave NE", "ZIPCODE": "98005", "WEBSITE": null, "PIN": null, "MAJOR": null, "MINOR": null }, "geometry": { "type": "Point", "coordinates": [ -122.164828736180567, 47.626991031256836 ] } },
{ "type": "Feature", "properties": { "OBJECTID": 138, "FEATURE_ID": 1754, "ESITE": "592751", "CODE": 330, "NAME": "Pacific Medical Center - Renton", "ABB_NAME": "PacMed Center", "ADDRESS": "1801 Lind Ave SW", "ZIPCODE": "98057", "WEBSITE": null, "PIN": null, "MAJOR": null, "MINOR": null }, "geometry": { "type": "Point", "coordinates": [ -122.22549316315515, 47.463774764627914 ] } },
{ "type": "Feature", "properties": { "OBJECTID": 139, "FEATURE_ID": 2079, "ESITE": "0000", "CODE": 330, "NAME": "Kaiser Permanente - Northgate South", "ABB_NAME": "Kaiser Permanente", "ADDRESS": "9720 4th Ave NE", "ZIPCODE": "98115", "WEBSITE": null, "PIN": null, "MAJOR": null, "MINOR": null }, "geometry": { "type": "Point", "coordinates": [ -122.323700229106322, 47.699963628209652 ] } },
{ "type": "Feature", "properties": { "OBJECTID": 140, "FEATURE_ID": 10001652, "ESITE": "00000", "CODE": 330, "NAME": "Valley Cities Behavioral Health Care - Renton", "ABB_NAME": "Valley Cities Behavioral Health Care", "ADDRESS": "221 Wells Ave ", "ZIPCODE": "98057", "WEBSITE": null, "PIN": null, "MAJOR": null, "MINOR": null }, "geometry": { "type": "Point", "coordinates": [ -122.205656616150776, 47.480357729640097 ] } },
{ "type": "Feature", "properties": { "OBJECTID": 141, "FEATURE_ID": 2680, "ESITE": "608049", "CODE": 330, "NAME": "Valley Medical Center - Cascade Clinic", "ABB_NAME": "Valley Medical Center", "ADDRESS": "3915 Talbot Rd S", "ZIPCODE": "98055", "WEBSITE": null, "PIN": null, "MAJOR": null, "MINOR": null }, "geometry": { "type": "Point", "coordinates": [ -122.212242452381375, 47.444324505096233 ] } },
{ "type": "Feature", "properties": { "OBJECTID": 142, "FEATURE_ID": 2331, "ESITE": "847103", "CODE": 330, "NAME": "Overlake Medical Clinics - Issaquah", "ABB_NAME": "Overlake Medical Clinics", "ADDRESS": "5708 E Lake Sammamish Pkwy SE", "ZIPCODE": "98029", "WEBSITE": null, "PIN": null, "MAJOR": null, "MINOR": null }, "geometry": { "type": "Point", "coordinates": [ -122.041099373407008, 47.550558808765444 ] } },
{ "type": "Feature", "properties": { "OBJECTID": 143, "FEATURE_ID": 1520, "ESITE": "444607", "CODE": 330, "NAME": "Cabrini Medical Tower", "ABB_NAME": "Cabrini Medical Tower", "ADDRESS": "901 Boren Ave", "ZIPCODE": "98104", "WEBSITE": null, "PIN": null, "MAJOR": null, "MINOR": null }, "geometry": { "type": "Point", "coordinates": [ -122.325375129066984, 47.608535654951559 ] } },
{ "type": "Feature", "properties": { "OBJECTID": 144, "FEATURE_ID": 1795, "ESITE": "0000000", "CODE": 330, "NAME": "Polyclinic - Broadway", "ABB_NAME": "Polyclinic", "ADDRESS": "1145 Broadway Ave", "ZIPCODE": "98122", "WEBSITE": null, "PIN": null, "MAJOR": null, "MINOR": null }, "geometry": { "type": "Point", "coordinates": [ -122.321459309421655, 47.61249319791844 ] } },
{ "type": "Feature", "properties": { "OBJECTID": 145, "FEATURE_ID": 1345, "ESITE": "14020", "CODE": 330, "NAME": "UW Medical Center - Montlake", "ABB_NAME": "UW Medical Center", "ADDRESS": "1959 NE Pacific St", "ZIPCODE": "98195", "WEBSITE": null, "PIN": null, "MAJOR": null, "MINOR": null }, "geometry": { "type": "Point", "coordinates": [ -122.307104635390175, 47.649681387648862 ] } },
{ "type": "Feature", "properties": { "OBJECTID": 146, "FEATURE_ID": 2663, "ESITE": "434140", "CODE": 330, "NAME": "Swedish Primary Care - Downtown Seattle", "ABB_NAME": "Swedish Primary Care", "ADDRESS": "800 5th Ave", "ZIPCODE": "98104", "WEBSITE": null, "PIN": null, "MAJOR": null, "MINOR": null }, "geometry": { "type": "Point", "coordinates": [ -122.330278887119192, 47.605729391657775 ] } },
{ "type": "Feature", "properties": { "OBJECTID": 147, "FEATURE_ID": 2667, "ESITE": "414443", "CODE": 330, "NAME": "Swedish Primary Care - Magnolia", "ABB_NAME": "Swedish Primary Care", "ADDRESS": "2450 33rd Ave W", "ZIPCODE": "98199", "WEBSITE": null, "PIN": null, "MAJOR": null, "MINOR": null }, "geometry": { "type": "Point", "coordinates": [ -122.399413197492251, 47.640246909360584 ] } },
{ "type": "Feature", "properties": { "OBJECTID": 148, "FEATURE_ID": 1150, "ESITE": "274969", "CODE": 330, "NAME": "UW Medical Center - Northwest", "ABB_NAME": "UW Medical Center", "ADDRESS": "1550 N 115th St", "ZIPCODE": "98133", "WEBSITE": "https://www.uwmedicine.org/locations/northwest-hospital", "PIN": "3026049130", "MAJOR": "302604", "MINOR": "9130" }, "geometry": { "type": "Point", "coordinates": [ -122.337087249217348, 47.714770197367251 ] } },
{ "type": "Feature", "properties": { "OBJECTID": 149, "FEATURE_ID": 147, "ESITE": "101690", "CODE": 330, "NAME": "Overlake Hospital Medical Center", "ABB_NAME": "Overlake Hospital", "ADDRESS": "1035 116th Ave NE", "ZIPCODE": "98104", "WEBSITE": "https://www.overlakehospital.org/", "PIN": "6448110060", "MAJOR": "644811", "MINOR": "0060" }, "geometry": { "type": "Point", "coordinates": [ -122.186854962864871, 47.620373426834185 ] } },
{ "type": "Feature", "properties": { "OBJECTID": 150, "FEATURE_ID": 2353, "ESITE": "107001", "CODE": 330, "NAME": "Virginia Mason Medical Center - Bellevue ", "ABB_NAME": "Virginia Mason", "ADDRESS": "11695 NE 4th St", "ZIPCODE": "98004", "WEBSITE": null, "PIN": null, "MAJOR": null, "MINOR": null }, "geometry": { "type": "Point", "coordinates": [ -122.184265161021486, 47.61277640080889 ] } },
{ "type": "Feature", "properties": { "OBJECTID": 151, "FEATURE_ID": 2662, "ESITE": "448514", "CODE": 330, "NAME": "Swedish Primary Care - Central Seattle", "ABB_NAME": "Swedish Primary Care", "ADDRESS": "1600 E Jefferson St", "ZIPCODE": "98122", "WEBSITE": null, "PIN": null, "MAJOR": null, "MINOR": null }, "geometry": { "type": "Point", "coordinates": [ -122.311214222419409, 47.606487151931127 ] } },
{ "type": "Feature", "properties": { "OBJECTID": 152, "FEATURE_ID": 2670, "ESITE": "470933", "CODE": 330, "NAME": "Swedish Primary Care - West Seattle", "ABB_NAME": "Swedish Primary Care", "ADDRESS": "4100 SW Alaska St", "ZIPCODE": "98116", "WEBSITE": null, "PIN": null, "MAJOR": null, "MINOR": null }, "geometry": { "type": "Point", "coordinates": [ -122.384416419971259, 47.561226488348318 ] } },
{ "type": "Feature", "properties": { "OBJECTID": 153, "FEATURE_ID": 2669, "ESITE": "416529", "CODE": 330, "NAME": "Swedish Primary Care - Queen Anne", "ABB_NAME": "Swedish Primary Care", "ADDRESS": "2211 Queen Anne Ave N", "ZIPCODE": "98109", "WEBSITE": null, "PIN": null, "MAJOR": null, "MINOR": null }, "geometry": { "type": "Point", "coordinates": [ -122.357335825320774, 47.638799608338992 ] } },
{ "type": "Feature", "properties": { "OBJECTID": 154, "FEATURE_ID": 2665, "ESITE": "0000000", "CODE": 330, "NAME": "Swedish Primary Care - Ravenna", "ABB_NAME": "Swedish Primary Care", "ADDRESS": "6322 Roosevelt Ave NE", "ZIPCODE": "98115", "WEBSITE": null, "PIN": null, "MAJOR": null, "MINOR": null }, "geometry": { "type": "Point", "coordinates": [ -122.31703844326934, 47.674842315083538 ] } },
{ "type": "Feature", "properties": { "OBJECTID": 155, "FEATURE_ID": 2676, "ESITE": "135646", "CODE": 330, "NAME": "UW Medicine - Shoreline", "ABB_NAME": "UW Medicine", "ADDRESS": "1355 N 205th St", "ZIPCODE": "98133", "WEBSITE": null, "PIN": null, "MAJOR": null, "MINOR": null }, "geometry": { "type": "Point", "coordinates": [ -122.341921633702711, 47.777342237930455 ] } },
{ "type": "Feature", "properties": { "OBJECTID": 156, "FEATURE_ID": 2657, "ESITE": "839308", "CODE": 330, "NAME": "Polyclinic - Downtown", "ABB_NAME": "Polyclinic", "ADDRESS": "509 Olive Way", "ZIPCODE": "98101", "WEBSITE": null, "PIN": null, "MAJOR": null, "MINOR": null }, "geometry": { "type": "Point", "coordinates": [ -122.336558797662406, 47.612786591071263 ] } },
{ "type": "Feature", "properties": { "OBJECTID": 157, "FEATURE_ID": 2651, "ESITE": "440498", "CODE": 330, "NAME": "Pacific Medical Diagnostic Center for Sleep Health", "ABB_NAME": "PacMed Diagnostic Center", "ADDRESS": "10416 5th Ave NE", "ZIPCODE": "98125", "WEBSITE": null, "PIN": null, "MAJOR": null, "MINOR": null }, "geometry": { "type": "Point", "coordinates": [ -122.322702386395505, 47.704418086209969 ] } },
{ "type": "Feature", "properties": { "OBJECTID": 158, "FEATURE_ID": 2681, "ESITE": "600033", "CODE": 330, "NAME": "UW Medicine - Valley Medical Center", "ABB_NAME": "UW Medicine", "ADDRESS": "4445 Talbot Rd S", "ZIPCODE": "98055", "WEBSITE": null, "PIN": null, "MAJOR": null, "MINOR": null }, "geometry": { "type": "Point", "coordinates": [ -122.213748803152441, 47.43950451403218 ] } },
{ "type": "Feature", "properties": { "OBJECTID": 159, "FEATURE_ID": 10001611, "ESITE": "00000", "CODE": 330, "NAME": "Indigo Urgent Care - Auburn", "ABB_NAME": "Indigo Urgent Care", "ADDRESS": "7096 Lakeland Hills Way", "ZIPCODE": "98092", "WEBSITE": null, "PIN": null, "MAJOR": null, "MINOR": null }, "geometry": { "type": "Point", "coordinates": [ -122.208210241649098, 47.243878947435405 ] } },
{ "type": "Feature", "properties": { "OBJECTID": 160, "FEATURE_ID": 10001626, "ESITE": "00000", "CODE": 330, "NAME": "Northwest Kidney Centers - Snoqualmie Ridge", "ABB_NAME": "Northwest Kidney Centers", "ADDRESS": "35131 SE Douglas St", "ZIPCODE": "98065", "WEBSITE": null, "PIN": null, "MAJOR": null, "MINOR": null }, "geometry": { "type": "Point", "coordinates": [ -121.871492311021939, 47.525368962905318 ] } },
{ "type": "Feature", "properties": { "OBJECTID": 161, "FEATURE_ID": 2659, "ESITE": "0000000", "CODE": 330, "NAME": "Polyclinic - Northgate", "ABB_NAME": "Polyclinic", "ADDRESS": "9709 3rd Ave NE", "ZIPCODE": "98115", "WEBSITE": null, "PIN": null, "MAJOR": null, "MINOR": null }, "geometry": { "type": "Point", "coordinates": [ -122.32692109727671, 47.699162764114007 ] } },
{ "type": "Feature", "properties": { "OBJECTID": 162, "FEATURE_ID": 2687, "ESITE": "11216", "CODE": 330, "NAME": "Valley Medical Center - Newcastle Clinic", "ABB_NAME": "Valley Medical Center", "ADDRESS": "7203 129th Ave SE", "ZIPCODE": "98056", "WEBSITE": null, "PIN": null, "MAJOR": null, "MINOR": null }, "geometry": { "type": "Point", "coordinates": [ -122.168096659134932, 47.538065636229263 ] } },
{ "type": "Feature", "properties": { "OBJECTID": 163, "FEATURE_ID": 1634, "ESITE": "1013565", "CODE": 330, "NAME": "International District Medical and Dental Clinic", "ABB_NAME": "Int'l Dist Med and Dental Clinic", "ADDRESS": "720 8th Ave S", "ZIPCODE": "98104", "WEBSITE": null, "PIN": null, "MAJOR": null, "MINOR": null }, "geometry": { "type": "Point", "coordinates": [ -122.322178570625695, 47.596128377167915 ] } },
{ "type": "Feature", "properties": { "OBJECTID": 164, "FEATURE_ID": 2677, "ESITE": "83325", "CODE": 330, "NAME": "UW Medicine - Woodinville", "ABB_NAME": "UW Medicine", "ADDRESS": "17638 140th Ave NE", "ZIPCODE": "98072", "WEBSITE": null, "PIN": null, "MAJOR": null, "MINOR": null }, "geometry": { "type": "Point", "coordinates": [ -122.151750902039993, 47.756037145483774 ] } },
{ "type": "Feature", "properties": { "OBJECTID": 165, "FEATURE_ID": 2664, "ESITE": "96899", "CODE": 330, "NAME": "Swedish Urgent Care - Factoria", "ABB_NAME": "Swedish Urgent Care", "ADDRESS": "3900 Factoria Blvd SE", "ZIPCODE": "98006", "WEBSITE": null, "PIN": null, "MAJOR": null, "MINOR": null }, "geometry": { "type": "Point", "coordinates": [ -122.16859996987948, 47.575436696403578 ] } },
{ "type": "Feature", "properties": { "OBJECTID": 166, "FEATURE_ID": 2675, "ESITE": "389617", "CODE": 330, "NAME": "UW Medicine - Kent - Des Moines", "ABB_NAME": "UW Medicine", "ADDRESS": "23213 Pacific Hwy S", "ZIPCODE": "98032", "WEBSITE": null, "PIN": null, "MAJOR": null, "MINOR": null }, "geometry": { "type": "Point", "coordinates": [ -122.296370251087737, 47.393656640686395 ] } },
{ "type": "Feature", "properties": { "OBJECTID": 167, "FEATURE_ID": 2671, "ESITE": "832972", "CODE": 330, "NAME": "UW Medicine - Belltown", "ABB_NAME": "UW Medicine ", "ADDRESS": "2505 2nd Ave", "ZIPCODE": "98121", "WEBSITE": null, "PIN": null, "MAJOR": null, "MINOR": null }, "geometry": { "type": "Point", "coordinates": [ -122.348444675501469, 47.6153352277815 ] } },
{ "type": "Feature", "properties": { "OBJECTID": 168, "FEATURE_ID": 10001646, "ESITE": "00000", "CODE": 330, "NAME": "UW Medicine - Kirkland", "ABB_NAME": "UW Medicine", "ADDRESS": "620 Kirkland Way", "ZIPCODE": "98033", "WEBSITE": null, "PIN": null, "MAJOR": null, "MINOR": null }, "geometry": { "type": "Point", "coordinates": [ -122.196488123497815, 47.676926017040905 ] } },
{ "type": "Feature", "properties": { "OBJECTID": 169, "FEATURE_ID": 10001638, "ESITE": "00000", "CODE": 330, "NAME": "Swedish Pediatrics - Meadow Creek", "ABB_NAME": "Swedish Pediatrics", "ADDRESS": "6520 226th Pl SE ", "ZIPCODE": "98027", "WEBSITE": null, "PIN": null, "MAJOR": null, "MINOR": null }, "geometry": { "type": "Point", "coordinates": [ -122.038107349537242, 47.542616811669419 ] } },
{ "type": "Feature", "properties": { "OBJECTID": 170, "FEATURE_ID": 1684, "ESITE": "348484", "CODE": 330, "NAME": "Lakeview Medical Dental Center", "ABB_NAME": "Lakeview Medical Dental", "ADDRESS": "3216 NE 45th Pl", "ZIPCODE": "98105", "WEBSITE": null, "PIN": null, "MAJOR": null, "MINOR": null }, "geometry": { "type": "Point", "coordinates": [ -122.292577602603288, 47.661732163765471 ] } },
{ "type": "Feature", "properties": { "OBJECTID": 171, "FEATURE_ID": 10001605, "ESITE": "00000", "CODE": 330, "NAME": "Indigo Urgent Care - Tukwila", "ABB_NAME": "Indigo Urgent Care", "ADDRESS": "17275 Southcenter Pkwy", "ZIPCODE": "98188", "WEBSITE": null, "PIN": null, "MAJOR": null, "MINOR": null }, "geometry": { "type": "Point", "coordinates": [ -122.261356167658178, 47.44902065432192 ] } },
{ "type": "Feature", "properties": { "OBJECTID": 172, "FEATURE_ID": 10001606, "ESITE": "00000", "CODE": 330, "NAME": "Indigo Urgent Care - Kent Station", "ABB_NAME": "Indigo Urgent Care", "ADDRESS": "321 Ramsay Way ", "ZIPCODE": "98032", "WEBSITE": null, "PIN": null, "MAJOR": null, "MINOR": null }, "geometry": { "type": "Point", "coordinates": [ -122.235151330330538, 47.383772717414885 ] } },
{ "type": "Feature", "properties": { "OBJECTID": 173, "FEATURE_ID": 10001676, "ESITE": "00000", "CODE": 330, "NAME": "EvergreenHealth Primary Care - Lakeshore Bothell", "ABB_NAME": "EvergreenHealth Primary Care", "ADDRESS": "10025 NE 186th St", "ZIPCODE": "98011", "WEBSITE": null, "PIN": null, "MAJOR": null, "MINOR": null }, "geometry": { "type": "Point", "coordinates": [ -122.206394406375296, 47.762334977849079 ] } },
{ "type": "Feature", "properties": { "OBJECTID": 174, "FEATURE_ID": 10001632, "ESITE": "00000", "CODE": 330, "NAME": "Swedish Primary Care - South Lake Union", "ABB_NAME": "Swedish Primary Care", "ADDRESS": "510 Boren Ave N", "ZIPCODE": "98109", "WEBSITE": null, "PIN": null, "MAJOR": null, "MINOR": null }, "geometry": { "type": "Point", "coordinates": [ -122.335596639374685, 47.624224486369869 ] } },
{ "type": "Feature", "properties": { "OBJECTID": 175, "FEATURE_ID": 2674, "ESITE": "571237", "CODE": 330, "NAME": "UW Medicine - Issaquah", "ABB_NAME": "UW Medicine", "ADDRESS": "1740 NW Maple St", "ZIPCODE": "98027", "WEBSITE": null, "PIN": null, "MAJOR": null, "MINOR": null }, "geometry": { "type": "Point", "coordinates": [ -122.063838308288979, 47.543638837958845 ] } },
{ "type": "Feature", "properties": { "OBJECTID": 176, "FEATURE_ID": 10001639, "ESITE": "00000", "CODE": 330, "NAME": "Swedish Primary Care - Snoqualmie", "ABB_NAME": "Swedish Primary Care", "ADDRESS": "37624 SE Fury St", "ZIPCODE": "98065", "WEBSITE": null, "PIN": null, "MAJOR": null, "MINOR": null }, "geometry": { "type": "Point", "coordinates": [ -121.838338613463989, 47.534016948950196 ] } },
{ "type": "Feature", "properties": { "OBJECTID": 177, "FEATURE_ID": 10001640, "ESITE": "00000", "CODE": 330, "NAME": "Harborview Family Medicine Clinic", "ABB_NAME": "Harborview Family Medicine", "ADDRESS": "401 Broadway", "ZIPCODE": "98104", "WEBSITE": null, "PIN": null, "MAJOR": null, "MINOR": null }, "geometry": { "type": "Point", "coordinates": [ -122.321198496949179, 47.605623928615827 ] } },
{ "type": "Feature", "properties": { "OBJECTID": 178, "FEATURE_ID": 2658, "ESITE": "00000", "CODE": 330, "NAME": "HealthPoint - Renton Campus", "ABB_NAME": "HealthPoint", "ADDRESS": "400 S 2nd St", "ZIPCODE": "98057", "WEBSITE": null, "PIN": null, "MAJOR": null, "MINOR": null }, "geometry": { "type": "Point", "coordinates": [ -122.211527235832875, 47.482105233037508 ] } },
{ "type": "Feature", "properties": { "OBJECTID": 179, "FEATURE_ID": 10001674, "ESITE": "00000", "CODE": 330, "NAME": "EvergreenHealth Signature Care", "ABB_NAME": "EvergreenHealth Signature Care", "ADDRESS": "12303 NE 130th Ln", "ZIPCODE": "98034", "WEBSITE": null, "PIN": null, "MAJOR": null, "MINOR": null }, "geometry": { "type": "Point", "coordinates": [ -122.177472261171744, 47.715500558809111 ] } },
{ "type": "Feature", "properties": { "OBJECTID": 180, "FEATURE_ID": 10001635, "ESITE": "00000", "CODE": 330, "NAME": "Swedish Primary Care - Redmond Ridge", "ABB_NAME": "Swedish Primary Care", "ADDRESS": "23525 NE Novelty Hill Rd", "ZIPCODE": "98053", "WEBSITE": null, "PIN": null, "MAJOR": null, "MINOR": null }, "geometry": { "type": "Point", "coordinates": [ -122.024095527708326, 47.699865356742393 ] } },
{ "type": "Feature", "properties": { "OBJECTID": 181, "FEATURE_ID": 10001631, "ESITE": "00000", "CODE": 330, "NAME": "Swedish Primary Care - Mercer Island", "ABB_NAME": "Swedish Primary Care", "ADDRESS": "3236 78th Ave SE", "ZIPCODE": "98040", "WEBSITE": null, "PIN": null, "MAJOR": null, "MINOR": null }, "geometry": { "type": "Point", "coordinates": [ -122.233179596489933, 47.580746658007179 ] } },
{ "type": "Feature", "properties": { "OBJECTID": 182, "FEATURE_ID": 10001675, "ESITE": "00000", "CODE": 330, "NAME": "EvergreenHealth Internal Medicine", "ABB_NAME": "EvergreenHealth Internal Medicine", "ADDRESS": "12333 NE 130th Ln", "ZIPCODE": "98034", "WEBSITE": null, "PIN": null, "MAJOR": null, "MINOR": null }, "geometry": { "type": "Point", "coordinates": [ -122.176622048980136, 47.716351595860147 ] } },
{ "type": "Feature", "properties": { "OBJECTID": 183, "FEATURE_ID": 10001678, "ESITE": "00000", "CODE": 330, "NAME": "Planned Parenthood Health Center - Eastside", "ABB_NAME": "Planned Parenthood", "ADDRESS": "14730 NE 8th St", "ZIPCODE": "98007", "WEBSITE": null, "PIN": null, "MAJOR": null, "MINOR": null }, "geometry": { "type": "Point", "coordinates": [ -122.144218565983721, 47.617762875508831 ] } },
{ "type": "Feature", "properties": { "OBJECTID": 184, "FEATURE_ID": 2660, "ESITE": "00000", "CODE": 330, "NAME": "HealthPoint - Kent Urgent Care", "ABB_NAME": "HealthPoint", "ADDRESS": "219 State Ave N", "ZIPCODE": "98030", "WEBSITE": null, "PIN": null, "MAJOR": null, "MINOR": null }, "geometry": { "type": "Point", "coordinates": [ -122.230097276490909, 47.382712856071628 ] } },
{ "type": "Feature", "properties": { "OBJECTID": 185, "FEATURE_ID": 2700, "ESITE": "536743", "CODE": 330, "NAME": "HealthPoint - Redmond", "ABB_NAME": "HealthPoint", "ADDRESS": "16225 NE 87th St", "ZIPCODE": "98052", "WEBSITE": null, "PIN": null, "MAJOR": null, "MINOR": null }, "geometry": { "type": "Point", "coordinates": [ -122.123390166309832, 47.679409908643116 ] } },
{ "type": "Feature", "properties": { "OBJECTID": 186, "FEATURE_ID": 10001677, "ESITE": "00000", "CODE": 330, "NAME": "EvergreenHealth Primary Care - Duvall", "ABB_NAME": "EvergreenHealth Primary Care", "ADDRESS": "14720 Main St", "ZIPCODE": "98019", "WEBSITE": null, "PIN": null, "MAJOR": null, "MINOR": null }, "geometry": { "type": "Point", "coordinates": [ -121.986611307296371, 47.734291823065142 ] } },
{ "type": "Feature", "properties": { "OBJECTID": 187, "FEATURE_ID": 10001680, "ESITE": "00000", "CODE": 330, "NAME": "Planned Parenthood Health Center - Central District", "ABB_NAME": "Planned Parenthood", "ADDRESS": "2001 E Madison St", "ZIPCODE": "98122", "WEBSITE": null, "PIN": null, "MAJOR": null, "MINOR": null }, "geometry": { "type": "Point", "coordinates": [ -122.305162413225091, 47.617516530366622 ] } },
{ "type": "Feature", "properties": { "OBJECTID": 188, "FEATURE_ID": 10001644, "ESITE": "00000", "CODE": 330, "NAME": "UW Medicine - Ravenna", "ABB_NAME": "UW Medicine", "ADDRESS": "4915 25th Ave NE", "ZIPCODE": "98105", "WEBSITE": null, "PIN": null, "MAJOR": null, "MINOR": null }, "geometry": { "type": "Point", "coordinates": [ -122.301650402302826, 47.66516369808263 ] } },
{ "type": "Feature", "properties": { "OBJECTID": 189, "FEATURE_ID": 10001645, "ESITE": "00000", "CODE": 330, "NAME": "UW Medicine - Fremont", "ABB_NAME": "UW Medicine", "ADDRESS": "459 N 35th St", "ZIPCODE": "98103", "WEBSITE": null, "PIN": null, "MAJOR": null, "MINOR": null }, "geometry": { "type": "Point", "coordinates": [ -122.35300318330934, 47.650589214483695 ] } },
{ "type": "Feature", "properties": { "OBJECTID": 190, "FEATURE_ID": 2692, "ESITE": "446849", "CODE": 330, "NAME": "Virginia Mason Medical Center - Seattle", "ABB_NAME": "Virginia Mason", "ADDRESS": "1100 9th Ave", "ZIPCODE": "98101", "WEBSITE": null, "PIN": null, "MAJOR": null, "MINOR": null }, "geometry": { "type": "Point", "coordinates": [ -122.327928299422396, 47.609532109066272 ] } },
{ "type": "Feature", "properties": { "OBJECTID": 191, "FEATURE_ID": 2689, "ESITE": "572713", "CODE": 330, "NAME": "Virginia Mason Medical Center - Issaquah ", "ABB_NAME": "Virginia Mason", "ADDRESS": "100 NE Gilman Blvd", "ZIPCODE": "98027", "WEBSITE": null, "PIN": null, "MAJOR": null, "MINOR": null }, "geometry": { "type": "Point", "coordinates": [ -122.033856191024796, 47.537175722960626 ] } },
{ "type": "Feature", "properties": { "OBJECTID": 192, "FEATURE_ID": 10001679, "ESITE": "00000", "CODE": 330, "NAME": "Planned Parenthood Health Center - University District", "ABB_NAME": "Planned Parenthood", "ADDRESS": "5020 Roosevelt Way NE", "ZIPCODE": "98105", "WEBSITE": null, "PIN": null, "MAJOR": null, "MINOR": null }, "geometry": { "type": "Point", "coordinates": [ -122.317082484508262, 47.665609664242147 ] } },
{ "type": "Feature", "properties": { "OBJECTID": 193, "FEATURE_ID": 819, "ESITE": "836480", "CODE": 330, "NAME": "Swedish Hospital - First Hill Campus", "ABB_NAME": "Swedish Hospital", "ADDRESS": "747 Broadway", "ZIPCODE": "98122", "WEBSITE": null, "PIN": null, "MAJOR": null, "MINOR": null }, "geometry": { "type": "Point", "coordinates": [ -122.321571449739977, 47.608740577069085 ] } },
{ "type": "Feature", "properties": { "OBJECTID": 194, "FEATURE_ID": 10001641, "ESITE": "00000", "CODE": 330, "NAME": "UW Medical Center - Internal Medicine, Pediatric", "ABB_NAME": "UW Medical Center", "ADDRESS": "4245 Roosevelt Way NE", "ZIPCODE": "98105", "WEBSITE": null, "PIN": null, "MAJOR": null, "MINOR": null }, "geometry": { "type": "Point", "coordinates": [ -122.318211317202923, 47.658788831767069 ] } },
{ "type": "Feature", "properties": { "OBJECTID": 195, "FEATURE_ID": 10001642, "ESITE": "00000", "CODE": 330, "NAME": "UW Medical Center - South Lake Union", "ABB_NAME": "UW Medical Center", "ADDRESS": "750 Republican St", "ZIPCODE": "98109", "WEBSITE": null, "PIN": null, "MAJOR": null, "MINOR": null }, "geometry": { "type": "Point", "coordinates": [ -122.341633108669313, 47.623476171642309 ] } },
{ "type": "Feature", "properties": { "OBJECTID": 196, "FEATURE_ID": 10001665, "ESITE": "00000", "CODE": 330, "NAME": "Mary Bridge Children's Outpatient Center", "ABB_NAME": "Mary Bridge Children's", "ADDRESS": "505 S 336th St", "ZIPCODE": "98003", "WEBSITE": null, "PIN": null, "MAJOR": null, "MINOR": null }, "geometry": { "type": "Point", "coordinates": [ -122.326953794311024, 47.299464216976673 ] } },
{ "type": "Feature", "properties": { "OBJECTID": 197, "FEATURE_ID": 10001673, "ESITE": "00000", "CODE": 330, "NAME": "EvergreenHealth Primary Care - Redmond Town Center", "ABB_NAME": "EvergreenHealth Primary Care", "ADDRESS": "7345 164th Ave NE", "ZIPCODE": "98052", "WEBSITE": null, "PIN": null, "MAJOR": null, "MINOR": null }, "geometry": { "type": "Point", "coordinates": [ -122.121812410006015, 47.670330205087517 ] } },
{ "type": "Feature", "properties": { "OBJECTID": 198, "FEATURE_ID": 2123, "ESITE": "759903", "CODE": 330, "NAME": "Fred Hutch Cancer Wellness Center", "ABB_NAME": "Fred Hutch", "ADDRESS": "1100 Fairview Ave N", "ZIPCODE": "98109", "WEBSITE": null, "PIN": null, "MAJOR": null, "MINOR": null }, "geometry": { "type": "Point", "coordinates": [ -122.330081831953251, 47.628030190044051 ] } },
{ "type": "Feature", "properties": { "OBJECTID": 199, "FEATURE_ID": 2701, "ESITE": "705937", "CODE": 330, "NAME": "HealthPoint - Federal Way", "ABB_NAME": "HealthPoint", "ADDRESS": "33431 13th Pl S", "ZIPCODE": "98003", "WEBSITE": null, "PIN": null, "MAJOR": null, "MINOR": null }, "geometry": { "type": "Point", "coordinates": [ -122.317859315887276, 47.301954827905419 ] } },
{ "type": "Feature", "properties": { "OBJECTID": 200, "FEATURE_ID": 10001643, "ESITE": "00000", "CODE": 330, "NAME": "UW Medicine - Ballard", "ABB_NAME": "UW Medicine", "ADDRESS": "1455 NW Leary Way", "ZIPCODE": "98107", "WEBSITE": null, "PIN": null, "MAJOR": null, "MINOR": null }, "geometry": { "type": "Point", "coordinates": [ -122.375731360909199, 47.663430501827499 ] } },
{ "type": "Feature", "properties": { "OBJECTID": 201, "FEATURE_ID": 10001664, "ESITE": "00000", "CODE": 330, "NAME": "Mary Bridge Children's Pediatrics ", "ABB_NAME": "Mary Bridge Children's", "ADDRESS": "202 N Division St", "ZIPCODE": "98001", "WEBSITE": null, "PIN": null, "MAJOR": null, "MINOR": null }, "geometry": { "type": "Point", "coordinates": [ -122.229269103797492, 47.308528744336343 ] } },
{ "type": "Feature", "properties": { "OBJECTID": 202, "FEATURE_ID": 10001666, "ESITE": "00000", "CODE": 330, "NAME": "Mary Bridge Children's Pediatrics", "ABB_NAME": "Mary Bridge Children's", "ADDRESS": "17700 SE 272nd St", "ZIPCODE": "98042", "WEBSITE": null, "PIN": null, "MAJOR": null, "MINOR": null }, "geometry": { "type": "Point", "coordinates": [ -122.104425696464176, 47.35884804210405 ] } },
{ "type": "Feature", "properties": { "OBJECTID": 203, "FEATURE_ID": 10001668, "ESITE": "00000", "CODE": 330, "NAME": "EvergreenHealth Urgent Care - Totem Lake", "ABB_NAME": "EvergreenHealth Urgent Care", "ADDRESS": "12710 Totem Lake Blvd", "ZIPCODE": "98034", "WEBSITE": null, "PIN": null, "MAJOR": null, "MINOR": null }, "geometry": { "type": "Point", "coordinates": [ -122.18313657794036, 47.713934100037726 ] } },
{ "type": "Feature", "properties": { "OBJECTID": 204, "FEATURE_ID": 2702, "ESITE": "175585", "CODE": 330, "NAME": "HealthPoint - Bothell", "ABB_NAME": "HealthPoint", "ADDRESS": "10414 Beardslee Blvd", "ZIPCODE": "98011", "WEBSITE": null, "PIN": null, "MAJOR": null, "MINOR": null }, "geometry": { "type": "Point", "coordinates": [ -122.200586536978989, 47.760941397123112 ] } },
{ "type": "Feature", "properties": { "OBJECTID": 205, "FEATURE_ID": 1639, "ESITE": "894962", "CODE": 330, "NAME": "Country Doctor Community Clinic", "ABB_NAME": "Country Doctor Clinic", "ADDRESS": "500 19th Ave E", "ZIPCODE": "98112", "WEBSITE": null, "PIN": null, "MAJOR": null, "MINOR": null }, "geometry": { "type": "Point", "coordinates": [ -122.306980906393264, 47.62342400962018 ] } },
{ "type": "Feature", "properties": { "OBJECTID": 206, "FEATURE_ID": 2704, "ESITE": "582936", "CODE": 330, "NAME": "HealthPoint - Renton", "ABB_NAME": "HealthPoint", "ADDRESS": "200 S 2nd St", "ZIPCODE": "98057", "WEBSITE": null, "PIN": null, "MAJOR": null, "MINOR": null }, "geometry": { "type": "Point", "coordinates": [ -122.214881549443845, 47.481602153189378 ] } },
{ "type": "Feature", "properties": { "OBJECTID": 207, "FEATURE_ID": 1637, "ESITE": "433895", "CODE": 330, "NAME": "Carolyn Downs Family Medical Center", "ABB_NAME": "Carolyn Downs Medical Center", "ADDRESS": "2101 E Yesler Way", "ZIPCODE": "98122", "WEBSITE": null, "PIN": null, "MAJOR": null, "MINOR": null }, "geometry": { "type": "Point", "coordinates": [ -122.304653560149418, 47.601329327176757 ] } },
{ "type": "Feature", "properties": { "OBJECTID": 208, "FEATURE_ID": 2644, "ESITE": "000000", "CODE": 330, "NAME": "Polyclinic - Madison", "ABB_NAME": "Polyclinic", "ADDRESS": "904 7th Ave", "ZIPCODE": "98104", "WEBSITE": null, "PIN": null, "MAJOR": null, "MINOR": null }, "geometry": { "type": "Point", "coordinates": [ -122.328825505525103, 47.607191787806791 ] } },
{ "type": "Feature", "properties": { "OBJECTID": 209, "FEATURE_ID": 2672, "ESITE": "113634", "CODE": 330, "NAME": "UW Medicine - Factoria", "ABB_NAME": "UW Medicine", "ADDRESS": "13231 SE 36th St", "ZIPCODE": "98006", "WEBSITE": null, "PIN": null, "MAJOR": null, "MINOR": null }, "geometry": { "type": "Point", "coordinates": [ -122.164034471118669, 47.578880080612656 ] } },
{ "type": "Feature", "properties": { "OBJECTID": 210, "FEATURE_ID": 1626, "ESITE": "455639", "CODE": 330, "NAME": "Hearing, Speech and Deaf Center", "ABB_NAME": "Hearing, Speech, Deaf Center", "ADDRESS": "1625 19th Ave", "ZIPCODE": "98122", "WEBSITE": null, "PIN": null, "MAJOR": null, "MINOR": null }, "geometry": { "type": "Point", "coordinates": [ -122.30769513660448, 47.615980798284497 ] } }
]
}
